<Placemark><name>Palais Royal de Bruxelles</name><description></description><styleUrl>#other.png</styleUrl><Point><coordinates>4.362379,50.841957,0.000000</coordinates></Point></Placemark>
<Placemark><name>Palais Royal de Bruxelles</name><description></description><styleUrl>#other.png</styleUrl><Point><coordinates>4.362379,50.841957,0.000000</coordinates></Point></Placemark>
<Placemark><name>Kruidtuin</name><description></description><styleUrl>#other.png</styleUrl><Point><coordinates>4.365317,50.854923,0.000000</coordinates></Point></Placemark>
<Placemark><name>Mini-Europa</name><description></description><styleUrl>#other.png</styleUrl><Point><coordinates>4.338999,50.894211,0.000000</coordinates></Point></Placemark>
<Placemark><name>Hoogstraat</name><description>1000 Brussel</description><styleUrl>#other.png</styleUrl><Point><coordinates>4.349046,50.837509,0.000000</coordinates></Point></Placemark>
<Placemark><name>Jubelpark</name><description></description><styleUrl>#other.png</styleUrl><Point><coordinates>4.391664,50.838490,0.000000</coordinates></Point></Placemark>
<Placemark><name>Atomium</name><description></description><styleUrl>#other.png</styleUrl><Point><coordinates>4.341413,50.894947,0.000000</coordinates></Point></Placemark>
<Placemark><name>Blaesstraat</name><description>Brussel</description><styleUrl>#other.png</styleUrl><Point><coordinates>4.346828,50.837341,0.000000</coordinates></Point></Placemark>
<Placemark><name>Sint-Kathelijne</name><description></description><styleUrl>#other.png</styleUrl><Point><coordinates>4.348072,50.851700,0.000000</coordinates></Point></Placemark>
<Placemark><name>Brabantstraat</name><description>Schaarbeek</description><styleUrl>#other.png</styleUrl><Point><coordinates>4.363364,50.860390,0.000000</coordinates></Point></Placemark>
<Placemark><name>Gemeentehuis Van Schaarbeek</name><description></description><styleUrl>#other.png</styleUrl><Point><coordinates>4.373503,50.867458,0.000000</coordinates></Point></Placemark>
<Placemark><name>Hotel van Eetvelde</name><description></description><styleUrl>#other.png</styleUrl><Point><coordinates>4.380355,50.847157,0.000000</coordinates></Point></Placemark>
<Placemark><name>Vossenplein</name><description>1000 Brussel</description><styleUrl>#other.png</styleUrl><Point><coordinates>4.345562,50.837292,0.000000</coordinates></Point></Placemark>
<Placemark><name>Sint-Gorikshallen</name><description></description><styleUrl>#other.png</styleUrl><Point><coordinates>4.347032,50.847851,0.000000</coordinates></Point></Placemark>
<Placemark><name>Ambiorixsquare</name><description></description><styleUrl>#other.png</styleUrl><Point><coordinates>4.383330,50.846828,0.000000</coordinates></Point></Placemark>
<Placemark><name>Eugène Flageyplein</name><description>1050 Elsene</description><styleUrl>#other.png</styleUrl><Point><coordinates>4.371660,50.827976,0.000000</coordinates></Point></Placemark>
<Placemark><name>Louizaplein</name><description></description><styleUrl>#other.png</styleUrl><Point><coordinates>4.355317,50.835545,0.000000</coordinates></Point></Placemark>
<Placemark><name>Eugène Flageyplein</name><description>1050 Elsene</description><styleUrl>#other.png</styleUrl><Point><coordinates>4.371660,50.827976,0.000000</coordinates></Point></Placemark>
<Placemark><name>Hallepoort</name><description></description><styleUrl>#other.png</styleUrl><Point><coordinates>4.342789,50.833164,0.000000</coordinates></Point></Placemark>
<Placemark><name>Josaphatpark</name><description></description><styleUrl>#other.png</styleUrl><Point><coordinates>4.383853,50.864300,0.000000</coordinates></Point></Placemark>
<Placemark><name>Kruidtuin</name><description></description><styleUrl>#other.png</styleUrl><Point><coordinates>4.365317,50.854923,0.000000</coordinates></Point></Placemark>
<Placemark><name>Nieuwstraat</name><description>1000 Brussel</description><styleUrl>#other.png</styleUrl><Point><coordinates>4.355968,50.852730,0.000000</coordinates></Point></Placemark>
<Placemark><name>Europees Parlement</name><description></description><styleUrl>#other.png</styleUrl><Point><coordinates>4.376271,50.838467,0.000000</coordinates></Point></Placemark>
<Placemark><name>Luxemburgplein</name><description>1050 Elsene</description><styleUrl>#other.png</styleUrl><Point><coordinates>4.373137,50.838921,0.000000</coordinates></Point></Placemark>
<Placemark><name>Theatre de la Place des Martyrs</name><description></description><styleUrl>#other.png</styleUrl><Point><coordinates>4.356235,50.852070,0.000000</coordinates></Point></Placemark>
<Placemark><name>Horta Museum</name><description>14:00-17:30</description><styleUrl>#other.png</styleUrl><Point><coordinates>4.355549,50.824207,0.000000</coordinates></Point></Placemark>
