<Placemark><name>Meet Kaori 3 pm Starbucks</name><description></description><styleUrl>#culture.png</styleUrl><Point><coordinates>139.797842,35.711680,0.000000</coordinates></Point></Placemark>
<Placemark><name>Mayumi Nonogaki</name><description>http://www.facebook.com/profile.php?id=100000581077943&amp;sk=info no.omelet0v0rice.no1@hotmail.co.jp Kyoto-shi, Kyoto, Japan Japan</description><styleUrl>#culture.png</styleUrl><Point><coordinates>135.768036,35.011635,0.000000</coordinates></Point></Placemark>
<Placemark><name>Kaori Saito</name><description>Rush Corp1-41-8 Minami Senju, Arakawa-ku, Tokyo, Japan南千住駅（東京）http://www.facebook.com/saito.kaori+81-80-4367-3214	h101336@yamata.icu.ac.jppsuke1005@gmail.compsuke1005@live.jp</description><styleUrl>#culture.png</styleUrl><Point><coordinates>139.798798,35.733345,0.000000</coordinates></Point></Placemark>
<Placemark><name>Misaki Ishii</name><description>http://www.facebook.com/profile.php?id=100002104621656 mi.hm229@gmail.com Yamagata, Yamagata Prefecture Japan</description><styleUrl>#culture.png</styleUrl><Point><coordinates>140.339600,38.255440,0.000000</coordinates></Point></Placemark>
<Placemark><name>Asakusa Smile Vicky &amp; Matus</name><description></description><styleUrl>#residence.png</styleUrl><Point><coordinates>139.800751,35.707480,0.000000</coordinates></Point></Placemark>
<Placemark><name>Ayako Hori</name><description>Kansai Airporthttp://www.facebook.com/profile.php?id=681059785&amp;sk=info</description><styleUrl>#culture.png</styleUrl><Point><coordinates>135.243973,34.435329,0.000000</coordinates></Point></Placemark>
<Placemark><name>Jay Daniel</name><description>7-12-17 Minami Kasugaoka house, Room 105, Ibaraki, 567-0046+818043917964（株）フリーハンド 大阪営業所</description><styleUrl>#culture.png</styleUrl><Point><coordinates>135.529953,34.821247,0.000000</coordinates></Point></Placemark>
<Placemark><name>Kyodo station</name><description>8:30 breakfast with Miki</description><styleUrl>#car_services.png</styleUrl><Point><coordinates>139.636308,35.650690,0.000000</coordinates></Point></Placemark>
<Placemark><name>Hope International Fellowship</name><description>Sunday ServicesPrayer: 9:30 AMWorship Service: 10:30 AMChildren&rsquo;s Church: 11:15 AMWednesday Prayer Meeting:7:00 PMHope International Fellowship616-1 Kashiwakubo, Izu-shiShizuoka-ken 410-2407TEL &amp; FAX: 0558-72-3844</description><styleUrl>#health.png</styleUrl><Point><coordinates>138.952866,34.978813,0.000000</coordinates></Point></Placemark>
<Placemark><name>Eri Matsunaga</name><description>http://www.facebook.com/profile.php?id=100001454417227 Yokoyama横山さん  </description><styleUrl>#culture.png</styleUrl><Point><coordinates>134.006119,35.055248,0.000000</coordinates></Point></Placemark>
<Placemark><name>HisCall Church Nagoya</name><description>http://hiscallchurch.com/?page_id=11Aichi-ken, Nagoya-shi, Mizuho-ku, Tōeichō, ２丁目１４★ウェンズデーサービス（水曜日）午後7時30分/Passion Night on Wednesday, 7:30pmPLACE: ヒズコールコミュニティーハウス　/His Call Community House  Japan</description><styleUrl>#health.png</styleUrl><Point><coordinates>136.937256,35.135761,0.000000</coordinates></Point></Placemark>
<Placemark><name>Jesus Lifehouse Saturday</name><description>5:30 pm Saturday	 http://tokyo.jesuslifehouse.com/en/services TAMEIKESANNO STATION (GINZA, NAMBOKU LINES) Bicyle Culture Center Hall B1FTokyo-to, Minato-ku, Akasaka 1-9-3 Minato, Tokyo, Japan</description><styleUrl>#health.png</styleUrl><Point><coordinates>139.736771,35.674934,0.000000</coordinates></Point></Placemark>
<Placemark><name>JLH Wednesday</name><description></description><styleUrl>#health.png</styleUrl><Point><coordinates>139.692634,35.691244,0.000000</coordinates></Point></Placemark>
<Placemark><name>Hotel New Azuma</name><description>2500¥ per night2-38-3 Kiyokawa, Daito-ku, Tokyohttp://www.japanican.com/hotels/accessmap.aspx?ar=A27&amp;st=4018A45&amp;dt=20120303&amp;sn=6&amp;pn=1&amp;rn=1&amp;pr=-4000&amp;prto=4000#shisetsumenu</description><styleUrl>#other.png</styleUrl><Point><coordinates>139.800629,35.728729,0.000000</coordinates></Point></Placemark>
<Placemark><name>Sakura Hostel Asakusa</name><description>2940¥ per night2-24-2 Asakusa, Taito-ku, Tokyohttp://www.japanican.com/hotels/accessmap.aspx?ar=A27&amp;st=4018A76&amp;dt=20120303&amp;sn=6&amp;pn=1&amp;rn=1&amp;pr=-4000&amp;prto=4000#shisetsumenu</description><styleUrl>#residence.png</styleUrl><Point><coordinates>139.794830,35.716003,0.000000</coordinates></Point></Placemark>
<Placemark><name>Megumi Haraguchi</name><description>From March 22 http://www.facebook.com/profile.php?id=100001451272645 ksmth9@live.jp Kurume-shi, Fukuoka, Japan Japan</description><styleUrl>#culture.png</styleUrl><Point><coordinates>130.508377,33.319286,0.000000</coordinates></Point></Placemark>
<Placemark><name>Jesus Lifehouse Osaka</name><description>Sunday 11:30AM &amp; 1:30PMhttp://osaka.jesuslifehouse.com/en/services2012/2/19 &ndash; TB HALL（SHINSAIBASHI STATION EXIT 6）2012/2/26 &ndash; TSURUYA HALL（HONMACHI STATION EXIT 3）</description><styleUrl>#health.png</styleUrl><Point><coordinates>135.500336,34.675011,0.000000</coordinates></Point></Placemark>
<Placemark><name>Tokyo Baptist Church</name><description></description><styleUrl>#health.png</styleUrl><Point><coordinates>139.697540,35.650467,0.000000</coordinates></Point></Placemark>
<Placemark><name>Kansai International Airport</name><description></description><styleUrl>#car_services.png</styleUrl><Point><coordinates>135.243973,34.435329,0.000000</coordinates></Point></Placemark>
<Placemark><name>Vicky </name><description></description><styleUrl>#other.png</styleUrl><Point><coordinates>139.697040,35.689108,0.000000</coordinates></Point></Placemark>
<Placemark><name>Untitled Bookmark</name><description></description><styleUrl>#other.png</styleUrl><Point><coordinates>139.776814,35.624760,0.000000</coordinates></Point></Placemark>
<Placemark><name>Living Water Fellowship</name><description>Address :　              2697-1 Higashi-cho Shimada-shi, Shizuoka-kenTEL/FAX :　            0547-35-6195Cell :　                      090-9946-2819Nearest station :　 JR Tokai　Rokugo stationMail :　                     servant@lwf-shimada.orgMap :　                     Google Maphttp://www.lwf-shimada.org/eng/?page_id=22</description><styleUrl>#health.png</styleUrl><Point><coordinates>138.220901,34.832817,0.000000</coordinates></Point></Placemark>
<Placemark><name>Weiyue Li</name><description>http://www.facebook.com/profile.php?id=1526525177&amp;ref=ts li-weiyue728@hotmail.co.jp smileree(Skype) Tsukuba-shi, Ibaraki, Japan</description><styleUrl>#culture.png</styleUrl><Point><coordinates>140.076645,36.083485,0.000000</coordinates></Point></Placemark>
<Placemark><name>Yuya&apos;s</name><description>*119* Le Reve 1-4-5</description><styleUrl>#residence.png</styleUrl><Point><coordinates>139.704158,35.533943,0.000000</coordinates></Point></Placemark>
<Placemark><name>Jesus Lifehouse Sapporo</name><description>EVERY SUNDAY 1:00PMFIESTA BUILDING 2F (ODORI STATION)VENUE ACCESSFIESTA BUILDING 2F ODORI STATION, EXIT 35 2MIN WALKSapporo-shi Chuo-ku, Minami 3jou Nishi 1-3-3 Maru bldg. 2Fhttp://sapporo.jesuslifehouse.com/en/church-services/</description><styleUrl>#health.png</styleUrl><Point><coordinates>141.353394,43.059200,0.000000</coordinates></Point></Placemark>
<Placemark><name>HisCall Church Nagoya</name><description>http://hiscallchurch.com/?page_id=11★サンデーサービス（日曜日）午前11時＆午後2時Sunday Service on Sunday, 11:00am&amp;2:00pmPLACE: フェイマス丸の内ビル8F/FAMOUS Marunouchi 8F ★J-mix（土曜日）夜6時　/J-mix on Saturday 6:00pmPLACE: フェイマス丸の内ビル8F/FAMOUS Marunouchi 8F</description><styleUrl>#health.png</styleUrl><Point><coordinates>136.906952,35.175030,0.000000</coordinates></Point></Placemark>
<Placemark><name>Tokyo Dome City</name><description></description><styleUrl>#entertainment.png</styleUrl><Point><coordinates>139.754454,35.706290,0.000000</coordinates></Point></Placemark>
<Placemark><name>Kansai International Airport</name><description></description><styleUrl>#car_services.png</styleUrl><Point><coordinates>135.243973,34.435329,0.000000</coordinates></Point></Placemark>
<Placemark><name>Michiyoshi Toya</name><description>http://www.facebook.com/profile.php?id=501989776&amp;sk=info m.toya@lse.ac.ukmichi-toya@bluewin.ch Bunkyo-ku, Tokyo, Japan Japan</description><styleUrl>#culture.png</styleUrl><Point><coordinates>139.752167,35.708069,0.000000</coordinates></Point></Placemark>
<Placemark><name>Jesus Lifehouse Sunday</name><description>http://tokyo.jesuslifehouse.com/en/services 11 am, 1 pm, 4 pm Sundays ROPPONGI STATION (HIBIYA LINE (EXIT 1C, 2), OEDO LINE (EXIT 4B, 7), CHIYODA LINE (EXIT 5))  Sumitomo Belle Salle 1F, B1. Tokyo-to, Minato-ku, Roppongi 7-18-18 Minato, Tokyo, Japan</description><styleUrl>#health.png</styleUrl><Point><coordinates>139.729126,35.663998,0.000000</coordinates></Point></Placemark>
<Placemark><name>Misaki Takemura</name><description>http://www.facebook.com/profile.php?id=1470085417 pink_misaki_pink@yahoo.co.jppink.m@coast.ocn.ne.jp Tsu-shi, Mie, Japan Japan</description><styleUrl>#culture.png</styleUrl><Point><coordinates>136.505692,34.718597,0.000000</coordinates></Point></Placemark>
<Placemark><name>Jesus Lifehouse Yokohama</name><description>http://yokohama.jesuslifehouse.com/en/church-services/EVERY SATURDAY 7:00PMFEBUARY 4 &ndash; YOKOHAMA DOLL HOUSE 4F (MOTOMACHI-CHUKAGAI STATION)2/4, 2/18 &ndash; AKAIKUTSU HALL 4F MOTOMACHI-CHUKAGAI STATION, EXIT 4 2MIN WALKMinato Mirai LineKanagawa Ken, Yokohama Shi, Chuo Ku, Yamashita 18FEBUARY 11 &ndash; NIGIWAIZA HALL B2F (SAKURAGICHO STATION)2/11, 2/25 &ndash; NIGIWAIZA HALL B2F SAKURAGICHO STATION, MAIN EXIT 3MIN WALKKeihin Tohoku, Negishi, Yokohama, Blue LinesKanagawa Ken, Yokohama Shi, Chuo Ku, Nogecho 3-110-1FEBUARY 18 &ndash; YOKOHAMA DOLL HOUSE 4F (MOTOMACHI-CHUKAGAI STATION)FEBUARY 25 &ndash; NIGIWAIZA HALL B2F (SAKURAGICHO STATION)</description><styleUrl>#health.png</styleUrl><Point><coordinates>139.629196,35.449036,0.000000</coordinates></Point></Placemark>
<Placemark><name>Takuto Fujiwara</name><description>yahhotaku2525@yahoo.co.jpOsaka</description><styleUrl>#culture.png</styleUrl><Point><coordinates>135.502167,34.693737,0.000000</coordinates></Point></Placemark>
<Placemark><name>Language Exchange</name><description>6 pm - 10 pm SaturdayNAMBA ORIENTAL HOTEL 3F, 2-8-17, SENNICHIMAE, CHUO-KUhttp://www.facebook.com/events/312292692160697/</description><styleUrl>#education.png</styleUrl><Point><coordinates>135.503662,34.665775,0.000000</coordinates></Point></Placemark>
<Placemark><name>Miki&apos;s office</name><description></description><styleUrl>#other.png</styleUrl><Point><coordinates>139.729180,35.685671,0.000000</coordinates></Point></Placemark>
<Placemark><name>Hakata Port</name><description>Reservation EJ007. Pay 10700¥ by 11:00. Ferry 12:30 pm - 18:00.</description><styleUrl>#car_services.png</styleUrl><Point><coordinates>130.399333,33.608413,0.000000</coordinates></Point></Placemark>
<Placemark><name>Megumi Yamayoshi</name><description>http://www.facebook.com/profile.php?id=552167534 meguchael.26@hotmail.co.jp Osaka Japan</description><styleUrl>#culture.png</styleUrl><Point><coordinates>135.502167,34.693737,0.000000</coordinates></Point></Placemark>
<Placemark><name>Accommodation</name><description></description><styleUrl>#residence.png</styleUrl><Point><coordinates>139.771757,35.675987,0.000000</coordinates></Point></Placemark>
<Placemark><name>World Memorial Hall</name><description>Kobe World Memorial Hall６丁目-１２−２ Minatojima Nakamachihttp://www.punkspring.com/12/1 April 2012</description><styleUrl>#other.png</styleUrl><Point><coordinates>135.210175,34.663990,0.000000</coordinates></Point></Placemark>
<Placemark><name>Campus Crusade</name><description>Waseda University</description><styleUrl>#health.png</styleUrl><Point><coordinates>139.719803,35.708790,0.000000</coordinates></Point></Placemark>
<Placemark><name>Nara, Nara Prefecture</name><description>Japan</description><styleUrl>#entertainment.png</styleUrl><Point><coordinates>135.804993,34.685085,0.000000</coordinates></Point></Placemark>
<Placemark><name>Weiyue Li</name><description>http://www.facebook.com/profile.php?id=1526525177&amp;ref=ts li-weiyue728@hotmail.co.jp smileree(Skype) Tsukuba-shi, Ibaraki, Japan</description><styleUrl>#culture.png</styleUrl><Point><coordinates>140.076645,36.083485,0.000000</coordinates></Point></Placemark>
<Placemark><name>Akihabara Station</name><description>Akihabara 秋葉原秋葉原駅（東京</description><styleUrl>#entertainment.png</styleUrl><Point><coordinates>139.774216,35.698685,0.000000</coordinates></Point></Placemark>
<Placemark><name>SHOP</name><description>7-9-7 Nikka Bldg B1, Nishi-Shinjuku 24/7, back door after midnight. www.shop24-365.org/english.html</description><styleUrl>#health.png</styleUrl><Point><coordinates>139.698272,35.694799,0.000000</coordinates></Point></Placemark>
<Placemark><name>Sachiyo Nagamine</name><description>http://www.facebook.com/profile.php?id=100002388581395 chocochoco_crystal@live.jp Kita-ku, Tokyo, Japan Japan</description><styleUrl>#culture.png</styleUrl><Point><coordinates>139.733475,35.752804,0.000000</coordinates></Point></Placemark>
<Placemark><name>Sachiyo Nagamine</name><description>http://www.facebook.com/profile.php?id=100002388581395 chocochoco_crystal@live.jp Kita-ku, Tokyo, Japan Japan</description><styleUrl>#culture.png</styleUrl><Point><coordinates>139.733475,35.752804,0.000000</coordinates></Point></Placemark>
<Placemark><name>Kiyoko Kobayashi</name><description>+81 50 1681k-y.k@hotmail.co.jpFujisawa</description><styleUrl>#culture.png</styleUrl><Point><coordinates>139.490997,35.339142,0.000000</coordinates></Point></Placemark>
<Placemark><name>Jesus Lifehouse Wednesday</name><description>Wednesday 7:15 pm http://tokyo.jesuslifehouse.com/en/services Ochanomizu Christian Center 8F. Tokyo-to, Chiyoda-ku, Kanda Surugadai 2-1 Chiyoda, Tokyo, Japan</description><styleUrl>#health.png</styleUrl><Point><coordinates>139.763779,35.699337,0.000000</coordinates></Point></Placemark>
<Placemark><name>Hiroshima, Hiroshima Prefecture</name><description>Japan</description><styleUrl>#entertainment.png</styleUrl><Point><coordinates>132.455292,34.385204,0.000000</coordinates></Point></Placemark>
<Placemark><name>Yukie Hashimoto</name><description>Anjo-shi, Aichi, Japanhttp://www.facebook.com/yukiehy-hashimoto_oy@hotmail.co.jp</description><styleUrl>#culture.png</styleUrl><Point><coordinates>137.080292,34.958641,0.000000</coordinates></Point></Placemark>
<Placemark><name>Kaori Osato</name><description>http://www.facebook.com/profile.php?id=656683513 sweetfragrance1215@yahoo.co.jp Yokohama, Kanagawa Prefecture, Japan</description><styleUrl>#culture.png</styleUrl><Point><coordinates>139.638031,35.443707,0.000000</coordinates></Point></Placemark>
<Placemark><name>Capsule and Sauna Ikebukuro Plaza</name><description>2780¥ per night2-12-3 Ikebukuro, Toshima-kuhttp://www.japanican.com/hotels/accessmap.aspx?ar=A27&amp;st=4017A18&amp;dt=20120303&amp;sn=6&amp;pn=1&amp;rn=1&amp;pr=-4000&amp;prto=4000#shisetsumenu</description><styleUrl>#other.png</styleUrl><Point><coordinates>139.707047,35.732357,0.000000</coordinates></Point></Placemark>
<Placemark><name>Living Water Fellowship</name><description>Address :　              2697-1 Higashi-cho Shimada-shi, Shizuoka-kenTEL/FAX :　            0547-35-6195Cell :　                      090-9946-2819Nearest station :　 JR Tokai　Rokugo stationMail :　                     servant@lwf-shimada.orgMap :　                     Google Maphttp://www.lwf-shimada.org/eng/?page_id=22</description><styleUrl>#health.png</styleUrl><Point><coordinates>138.220901,34.832817,0.000000</coordinates></Point></Placemark>
<Placemark><name>Uguisudani A</name><description>Uguisudani sta. [JR Yamanote line] - 3 min. walk Nippori sta. [JR Yamanote &amp; Keisei line] - 10 min. walk APPROX. TIME TO KEY STATION (including walking time) Ueno - 9 min. | Ikebukuro - 20 min. | Shinjuku - 30 min.Tōkyō-to, Arakawa-ku, Higashiogu, ２丁目２９−１０Tōkyō-to, Taitō-ku, Negishi, ２丁目１２−１１ Japan</description><styleUrl>#car_services.png</styleUrl><Point><coordinates>139.771484,35.742168,0.000000</coordinates></Point></Placemark>
<Placemark><name>Harvest Christian Fellowship Tokyo</name><description>Harvest Christian Fellowship Tokyo • 116-0013　荒川区西日暮里2-29-6秋山ビル4階Pastor David &amp; Sae Riyu TEl: 03-6806-6955</description><styleUrl>#health.png</styleUrl><Point><coordinates>139.766785,35.732136,0.000000</coordinates></Point></Placemark>
<Placemark><name>Jesus Lifehouse Sapporo</name><description>EVERY SUNDAY 1:00PMFIESTA BUILDING 2F (ODORI STATION)VENUE ACCESSFIESTA BUILDING 2F ODORI STATION, EXIT 35 2MIN WALKSapporo-shi Chuo-ku, Minami 3jou Nishi 1-3-3 Maru bldg. 2Fhttp://sapporo.jesuslifehouse.com/en/church-services/</description><styleUrl>#health.png</styleUrl><Point><coordinates>141.353394,43.059200,0.000000</coordinates></Point></Placemark>
<Placemark><name>Tokyo Baptist Church</name><description></description><styleUrl>#health.png</styleUrl><Point><coordinates>139.697540,35.650467,0.000000</coordinates></Point></Placemark>
<Placemark><name>Haneda airport</name><description></description><styleUrl>#other.png</styleUrl><Point><coordinates>139.778708,35.563551,0.000000</coordinates></Point></Placemark>
<Placemark><name>Tohoku University</name><description>http://www.eng.tohoku.ac.jp/english/program/?menu=itn</description><styleUrl>#education.png</styleUrl><Point><coordinates>140.841507,38.254864,0.000000</coordinates></Point></Placemark>
<Placemark><name>Christina Kasahara</name><description></description><styleUrl>#culture.png</styleUrl><Point><coordinates>139.666534,35.661655,0.000000</coordinates></Point></Placemark>
<Placemark><name>Language Exchange</name><description>6 pm - 10 pm SaturdayNAMBA ORIENTAL HOTEL 3F, 2-8-17, SENNICHIMAE, CHUO-KUhttp://www.facebook.com/events/312292692160697/</description><styleUrl>#education.png</styleUrl><Point><coordinates>135.503662,34.665775,0.000000</coordinates></Point></Placemark>
<Placemark><name>Akari Miura</name><description>http://www.facebook.com/miuakari akarimiura(Skype) akarimiura@umail.ucsb.edu Suginami-ku, Tokyo, Japan Japan</description><styleUrl>#culture.png</styleUrl><Point><coordinates>139.636444,35.699566,0.000000</coordinates></Point></Placemark>
<Placemark><name>Sento bath house</name><description></description><styleUrl>#other.png</styleUrl><Point><coordinates>139.699550,35.527008,0.000000</coordinates></Point></Placemark>
<Placemark><name>Christina Kasahara</name><description></description><styleUrl>#culture.png</styleUrl><Point><coordinates>139.666534,35.661655,0.000000</coordinates></Point></Placemark>
<Placemark><name>Untitled Bookmark</name><description></description><styleUrl>#other.png</styleUrl><Point><coordinates>139.794926,35.710995,0.000000</coordinates></Point></Placemark>
<Placemark><name>Apple Store 5 pm Friday</name><description></description><styleUrl>#shop.png</styleUrl><Point><coordinates>139.710913,35.666164,0.000000</coordinates></Point></Placemark>
<Placemark><name>Nishi Shinjuku Skyscrapers</name><description></description><styleUrl>#entertainment.png</styleUrl><Point><coordinates>139.692237,35.687940,0.000000</coordinates></Point></Placemark>
<Placemark><name>Takasaki Grace Bible Church</name><description>Takasaki Grace Bible Church • 〒370‐0018 群馬県高崎市新保町42    Pastor Max Middleton ℡ 027‐353‐5892mailto:mj@mjmec.orgShinbomachi, Takasaki, Gunma Prefecture, Japan</description><styleUrl>#health.png</styleUrl><Point><coordinates>139.042770,36.347061,0.000000</coordinates></Point></Placemark>
<Placemark><name>615공동선언실천 해외측위원회</name><description>615공동선언실천 해외측위원회 http://www.facebook.com/615haewe?sk=info 東京都世田谷区南烏山1-12-26　アーバンステージ芦花公園408号, 157-0062 03675026150367504615 haewe615@jcom.home.ne.jp Tōkyō-to, Setagaya-ku, Minamikarasuyama, １丁目１２−２６ Japan</description><styleUrl>#education.png</styleUrl><Point><coordinates>139.610107,35.669468,0.000000</coordinates></Point></Placemark>
<Placemark><name>Gyomu</name><description>業務スーパー業務スーパー新宿榎店</description><styleUrl>#food_drink.png</styleUrl><Point><coordinates>139.729431,35.705105,0.000000</coordinates></Point></Placemark>
<Placemark><name>Akari Miura</name><description>http://www.facebook.com/miuakari akarimiura(Skype) akarimiura@umail.ucsb.edu Suginami-ku, Tokyo, Japan Japan</description><styleUrl>#culture.png</styleUrl><Point><coordinates>139.636444,35.699566,0.000000</coordinates></Point></Placemark>
<Placemark><name>Church</name><description></description><styleUrl>#health.png</styleUrl><Point><coordinates>139.634619,35.647412,0.000000</coordinates></Point></Placemark>
<Placemark><name>Eri Iwabuchi</name><description>http://www.facebook.com/profile.php?id=1466058807 Sendai Japan</description><styleUrl>#culture.png</styleUrl><Point><coordinates>140.869354,38.268215,0.000000</coordinates></Point></Placemark>
<Placemark><name>Yokosuka Grace Bible Church</name><description>10:30 am Sunday6:30 pm ThursdayPrayer Meetings 祈り会 January 19-21Thursday 木曜日 6:30pmFriday 金曜日 6:30pmSaturday 土曜日 6:30pmhttp://www.yokosukachurch.com/calendar/</description><styleUrl>#health.png</styleUrl><Point><coordinates>139.684738,35.267517,0.000000</coordinates></Point></Placemark>
<Placemark><name>Capsule Land</name><description>2500¥ per night3-36-6 Yushima, Bunkyo, Tokyo Prefecture 113-0034http://www.japanican.com/hotels/accessmap.aspx?ar=A27&amp;st=4019A43&amp;dt=20120303&amp;sn=6&amp;pn=1&amp;rn=1&amp;pr=-4000&amp;prto=4000#shisetsumenu Japan</description><styleUrl>#other.png</styleUrl><Point><coordinates>139.770126,35.707668,0.000000</coordinates></Point></Placemark>
<Placemark><name>Yokosuka Grace Bible Church</name><description>10:30 am Sunday6:30 pm ThursdayPrayer Meetings 祈り会 January 19-21Thursday 木曜日 6:30pmFriday 金曜日 6:30pmSaturday 土曜日 6:30pmhttp://www.yokosukachurch.com/calendar/</description><styleUrl>#health.png</styleUrl><Point><coordinates>139.684738,35.267517,0.000000</coordinates></Point></Placemark>
<Placemark><name>Metro Office Observatory</name><description>Metro Office Observatory, Shinjuku, cocoon shaped building</description><styleUrl>#other.png</styleUrl><Point><coordinates>139.691650,35.689186,0.000000</coordinates></Point></Placemark>
<Placemark><name>Harvest Christian Fellowship Tokyo</name><description>Harvest Christian Fellowship Tokyo • 116-0013　荒川区西日暮里2-29-6秋山ビル4階Pastor David &amp; Sae Riyu TEl: 03-6806-6955</description><styleUrl>#health.png</styleUrl><Point><coordinates>139.766785,35.732136,0.000000</coordinates></Point></Placemark>
<Placemark><name>Calvary Chapel Kamakura</name><description>3rd floor above ramen shop, by Rokujizo. 10:30-12:15.</description><styleUrl>#health.png</styleUrl><Point><coordinates>139.546322,35.314974,0.000000</coordinates></Point></Placemark>
<Placemark><name>Apple Store watch</name><description></description><styleUrl>#shop.png</styleUrl><Point><coordinates>139.704637,35.691603,0.000000</coordinates></Point></Placemark>
<Placemark><name>Mari Kobayashi</name><description>http://www.facebook.com/profile.php?id=1509360263 Chiyoda-ku, Tokyo Japan</description><styleUrl>#culture.png</styleUrl><Point><coordinates>139.753601,35.694004,0.000000</coordinates></Point></Placemark>
<Placemark><name>615공동선언실천 해외측위원회</name><description>615공동선언실천 해외측위원회 http://www.facebook.com/615haewe?sk=info 東京都世田谷区南烏山1-12-26　アーバンステージ芦花公園408号, 157-0062 03675026150367504615 haewe615@jcom.home.ne.jp Tōkyō-to, Setagaya-ku, Minamikarasuyama, １丁目１２−２６ Japan</description><styleUrl>#other.png</styleUrl><Point><coordinates>139.610107,35.669468,0.000000</coordinates></Point></Placemark>
<Placemark><name>Megumi Haraguchi</name><description>From March 22 http://www.facebook.com/profile.php?id=100001451272645 ksmth9@live.jp Kurume-shi, Fukuoka, Japan Japan</description><styleUrl>#culture.png</styleUrl><Point><coordinates>130.508377,33.319286,0.000000</coordinates></Point></Placemark>
<Placemark><name>Mari Kobayashi</name><description>http://www.facebook.com/profile.php?id=1509360263 Chiyoda-ku, Tokyo Japan</description><styleUrl>#culture.png</styleUrl><Point><coordinates>139.753601,35.694004,0.000000</coordinates></Point></Placemark>
<Placemark><name>TGIS Church</name><description>東京都新宿区西新宿７丁目９−６Japan, Tōkyō-to, Shinjuku-ku, Nishishinjuku, ７丁目９−６Be sure to get out of the west exit of Shinjuku, head west just follow the map and there should be no problem. It is the Kotobuki building on the 2nd floor, the same building as the Sagawa delivery trucks are located in, right on a corner facing a small park. The church is located diagonally across the street in a basement. The church&apos;s ph# is 03-3371-7558 and my cell # is 090-8109-2502.</description><styleUrl>#health.png</styleUrl><Point><coordinates>139.698013,35.694778,0.000000</coordinates></Point></Placemark>
<Placemark><name>Miki Otsuka</name><description>+81563214217miki.5f-3h.feliz@hotmail.co.jphttp://www.facebook.com/profile.php?id=6254098052903-2Mashiko Mashiko-machiHagagun TochigiJapan</description><styleUrl>#culture.png</styleUrl><Point><coordinates>140.098373,36.463680,0.000000</coordinates></Point></Placemark>
<Placemark><name>Fukuoka, Fukuoka Prefecture</name><description>Japan</description><styleUrl>#entertainment.png</styleUrl><Point><coordinates>130.401718,33.590355,0.000000</coordinates></Point></Placemark>
<Placemark><name>Yukemuri no Sato sento bath house</name><description>850 yen, 10 am - 2 am</description><styleUrl>#entertainment.png</styleUrl><Point><coordinates>139.587708,35.657622,0.000000</coordinates></Point></Placemark>
<Placemark><name>Change to JR</name><description></description><styleUrl>#car_services.png</styleUrl><Point><coordinates>139.622521,35.466243,0.000000</coordinates></Point></Placemark>
<Placemark><name>Takasaki Grace Bible Church</name><description>Takasaki Grace Bible Church • 〒370‐0018 群馬県高崎市新保町42    Pastor Max Middleton ℡ 027‐353‐5892mailto:mj@mjmec.orgShinbomachi, Takasaki, Gunma Prefecture, Japan</description><styleUrl>#health.png</styleUrl><Point><coordinates>139.042770,36.347061,0.000000</coordinates></Point></Placemark>
<Placemark><name>Korea University</name><description>http://www.korea-u.ac.jp/inquiry.html전화　042-341-1331FAX　042-344-1300E-Mail　inquiry@korea-u.ac.jp  東京都小平市小川町1-700Tōkyō-to, Kodaira-shi, Ogawachō, １丁目７００ Japan</description><styleUrl>#education.png</styleUrl><Point><coordinates>139.448471,35.723999,0.000000</coordinates></Point></Placemark>
<Placemark><name>Jesus Lifehouse Osaka</name><description>Tuesday 7:00 pmhttp://osaka.jesuslifehouse.com/en/services2012/2/21 &ndash; CHUO KAIKAN (NAGAHORIBASHI STATION EXIT 6)2012/2/28 &ndash; CHUO KAIKAN (NAGAHORIBASHI STATION EXIT 6)2012/3/6 &ndash; CHUO KAIKAN (NAGAHORIBASHI STATION EXIT 6)2012/3/13 &ndash; CHUO KAIKAN (NAGAHORIBASHI STATION EXIT 6)</description><styleUrl>#health.png</styleUrl><Point><coordinates>135.506363,34.674644,0.000000</coordinates></Point></Placemark>
<Placemark><name>Grace Tokyo Church</name><description>http://www.gracetokyo.org/ 10:30-12:00 Sunday Shibuya Station 35.6630255, 139.7003084Tōkyō-to, Shibuya-ku, Jinnan, １丁目１３−３ Japan</description><styleUrl>#health.png</styleUrl><Point><coordinates>139.700302,35.663059,0.000000</coordinates></Point></Placemark>
<Placemark><name>Grace Bible Church Sapporo</name><description>〒001－0906　札幌市北区新琴似６条１３丁目２－１Hokkaidō, Sapporo-shi, Kita-ku, Shinkotoni 6 Jō, １３丁目２−１http://www.gbc-s.com/</description><styleUrl>#health.png</styleUrl><Point><coordinates>141.311768,43.119217,0.000000</coordinates></Point></Placemark>
<Placemark><name>Metro Office Observatory</name><description>Metro Office Observatory, Shinjuku, cocoon shaped building</description><styleUrl>#entertainment.png</styleUrl><Point><coordinates>139.691650,35.689186,0.000000</coordinates></Point></Placemark>
<Placemark><name>CCC Conference</name><description>国立青少年教育振興機構（独立行政法人）</description><styleUrl>#health.png</styleUrl><Point><coordinates>139.693039,35.675488,0.000000</coordinates></Point></Placemark>
<Placemark><name>Jesus Lifehouse Sendai</name><description>1:00 pm Sunday6:30 pm Friday English Classhttp://sendai.jesuslifehouse.com/en/church-services/http://www.facebook.com/JLHSendai</description><styleUrl>#health.png</styleUrl><Point><coordinates>140.883682,38.261070,0.000000</coordinates></Point></Placemark>
<Placemark><name>Sakura Hostel Asakusa</name><description>2940¥ per night2-24-2 Asakusa, Taito-ku, Tokyohttp://www.japanican.com/hotels/accessmap.aspx?ar=A27&amp;st=4018A76&amp;dt=20120303&amp;sn=6&amp;pn=1&amp;rn=1&amp;pr=-4000&amp;prto=4000#shisetsumenu</description><styleUrl>#residence.png</styleUrl><Point><coordinates>139.794830,35.716003,0.000000</coordinates></Point></Placemark>
<Placemark><name>Miki Otsuka</name><description>+81563214217miki.5f-3h.feliz@hotmail.co.jphttp://www.facebook.com/profile.php?id=6254098052903-2Mashiko Mashiko-machiHagagun TochigiJapan</description><styleUrl>#culture.png</styleUrl><Point><coordinates>140.098373,36.463680,0.000000</coordinates></Point></Placemark>
<Placemark><name>Nagoya University</name><description></description><styleUrl>#education.png</styleUrl><Point><coordinates>136.963810,35.155387,0.000000</coordinates></Point></Placemark>
<Placemark><name>TGIS Church</name><description>東京都新宿区西新宿７丁目９−６Japan, Tōkyō-to, Shinjuku-ku, Nishishinjuku, ７丁目９−６Be sure to get out of the west exit of Shinjuku, head west just follow the map and there should be no problem. It is the Kotobuki building on the 2nd floor, the same building as the Sagawa delivery trucks are located in, right on a corner facing a small park. The church is located diagonally across the street in a basement. The church&apos;s ph# is 03-3371-7558 and my cell # is 090-8109-2502.</description><styleUrl>#health.png</styleUrl><Point><coordinates>139.698013,35.694778,0.000000</coordinates></Point></Placemark>
<Placemark><name>Kiyoko Kobayashi</name><description>+81 50 1681k-y.k@hotmail.co.jpFujisawa</description><styleUrl>#culture.png</styleUrl><Point><coordinates>139.490997,35.339142,0.000000</coordinates></Point></Placemark>
<Placemark><name>Change to Train</name><description></description><styleUrl>#car_services.png</styleUrl><Point><coordinates>139.740160,35.638703,0.000000</coordinates></Point></Placemark>
<Placemark><name>Takuto Fujiwara</name><description>yahhotaku2525@yahoo.co.jpOsaka</description><styleUrl>#culture.png</styleUrl><Point><coordinates>135.502167,34.693737,0.000000</coordinates></Point></Placemark>
<Placemark><name>Skytree</name><description></description><styleUrl>#other.png</styleUrl><Point><coordinates>139.809773,35.710232,0.000000</coordinates></Point></Placemark>
<Placemark><name>Korea University</name><description>http://www.korea-u.ac.jp/inquiry.html전화　042-341-1331FAX　042-344-1300E-Mail　inquiry@korea-u.ac.jp  東京都小平市小川町1-700Tōkyō-to, Kodaira-shi, Ogawachō, １丁目７００ Japan</description><styleUrl>#other.png</styleUrl><Point><coordinates>139.448471,35.723999,0.000000</coordinates></Point></Placemark>
<Placemark><name>Eri Matsunaga</name><description>http://www.facebook.com/profile.php?id=100001454417227 Yokoyama横山さん  </description><styleUrl>#culture.png</styleUrl><Point><coordinates>134.006119,35.055248,0.000000</coordinates></Point></Placemark>
<Placemark><name>Kwansei Gakuin University</name><description>Kwansei Gakuin University, UEGAHARA , NISHINOMIYA , HYOGO , JAPANJPS the 66th Annual MeetingMar.24rd (Sat.) - 27th (Tue.), 2012http://www.jps.or.jp/english/meeting.htmlhttp://www.kwansei.ac.jp/english/pr/pr_003311.html</description><styleUrl>#other.png</styleUrl><Point><coordinates>135.345734,34.770031,0.000000</coordinates></Point></Placemark>
<Placemark><name>Jesus Lifehouse Saturday</name><description>5:30 pm Saturday	 http://tokyo.jesuslifehouse.com/en/services TAMEIKESANNO STATION (GINZA, NAMBOKU LINES) Bicyle Culture Center Hall B1FTokyo-to, Minato-ku, Akasaka 1-9-3 Minato, Tokyo, Japan</description><styleUrl>#health.png</styleUrl><Point><coordinates>139.736771,35.674934,0.000000</coordinates></Point></Placemark>
<Placemark><name>Edo-Tokyo Museum</name><description>9:30-17:00</description><styleUrl>#entertainment.png</styleUrl><Point><coordinates>139.795616,35.696527,0.000000</coordinates></Point></Placemark>
<Placemark><name>Miki Otsuka</name><description>http://www.facebook.com/profile.php?id=625409805&amp;sk=wall +81563214217 Nagoya-shi, Aichi, Japan Japan</description><styleUrl>#culture.png</styleUrl><Point><coordinates>136.906403,35.181446,0.000000</coordinates></Point></Placemark>
<Placemark><name>Motomachi</name><description>Naka Ward, Yokohama, Kanagawa Prefecture, Japan</description><styleUrl>#car_services.png</styleUrl><Point><coordinates>139.649719,35.440365,0.000000</coordinates></Point></Placemark>
<Placemark><name>Michiyoshi Toya</name><description>http://www.facebook.com/profile.php?id=501989776&amp;sk=info m.toya@lse.ac.ukmichi-toya@bluewin.ch Bunkyo-ku, Tokyo, Japan Japan</description><styleUrl>#other.png</styleUrl><Point><coordinates>139.752167,35.708069,0.000000</coordinates></Point></Placemark>
<Placemark><name>Jesus Lifehouse Sunday</name><description>http://tokyo.jesuslifehouse.com/en/services 11 am, 1 pm, 4 pm Sundays ROPPONGI STATION (HIBIYA LINE (EXIT 1C, 2), OEDO LINE (EXIT 4B, 7), CHIYODA LINE (EXIT 5))  Sumitomo Belle Salle 1F, B1. Tokyo-to, Minato-ku, Roppongi 7-18-18 Minato, Tokyo, Japan</description><styleUrl>#health.png</styleUrl><Point><coordinates>139.729126,35.663998,0.000000</coordinates></Point></Placemark>
<Placemark><name>ISIN 2012</name><description>Nagoya University, Higashiyama Campus Furo-cho, Chikusa-ku, Nagoya, 464-8601, JapanMarch 21-22名古屋大学 太陽地球環境研究所東山分室事務室http://square.umin.ac.jp/isin2012/</description><styleUrl>#other.png</styleUrl><Point><coordinates>136.966934,35.154877,0.000000</coordinates></Point></Placemark>
<Placemark><name>Liberty House</name><description>3000¥ per nighthttp://www.libertyhouse.gr.jp/access.htmAdd : Nishi-Asakusa 2-1-4, Taito-ku, TOKYO 111-0035Tel : 03-3843-2822 / +81 3-3843-2822 (from overseas)Email : taito-ryokan@libertyhouse.gr.jp Add : Nishi-Asakusa 2-1-4, Taito-ku, TOKYO 111-0035Tel : 03-3843-2822 / +81 3-3843-2822 (from overseas)Email : taito-ryokan@libertyhouse.gr.jpAccess &amp; Map</description><styleUrl>#other.png</styleUrl><Point><coordinates>139.796616,35.711922,0.000000</coordinates></Point></Placemark>
<Placemark><name>Fukuoka, Fukuoka Prefecture</name><description>Japan</description><styleUrl>#car_services.png</styleUrl><Point><coordinates>130.401718,33.590355,0.000000</coordinates></Point></Placemark>
<Placemark><name>Megumi Yamayoshi</name><description>http://www.facebook.com/profile.php?id=552167534 meguchael.26@hotmail.co.jp Osaka Japan</description><styleUrl>#culture.png</styleUrl><Point><coordinates>135.502167,34.693737,0.000000</coordinates></Point></Placemark>
<Placemark><name>Tsukiji 6:30 Ritsu fish market</name><description></description><styleUrl>#culture.png</styleUrl><Point><coordinates>139.772815,35.668001,0.000000</coordinates></Point></Placemark>
<Placemark><name>Jesus Lifehouse Osaka</name><description>Sunday 11:30AM &amp; 1:30PMhttp://osaka.jesuslifehouse.com/en/services2012/2/19 &ndash; TB HALL（SHINSAIBASHI STATION EXIT 6）2012/2/26 &ndash; TSURUYA HALL（HONMACHI STATION EXIT 3）</description><styleUrl>#health.png</styleUrl><Point><coordinates>135.500336,34.675011,0.000000</coordinates></Point></Placemark>
<Placemark><name>Jesus Lifehouse Wednesday</name><description>Wednesday 7:15 pm http://tokyo.jesuslifehouse.com/en/services Ochanomizu Christian Center 8F. Tokyo-to, Chiyoda-ku, Kanda Surugadai 2-1 Chiyoda, Tokyo, Japan</description><styleUrl>#health.png</styleUrl><Point><coordinates>139.763779,35.699337,0.000000</coordinates></Point></Placemark>
<Placemark><name>Jesus Lifehouse Yokohama</name><description>http://yokohama.jesuslifehouse.com/en/church-services/EVERY SATURDAY 7:00PMFEBUARY 4 &ndash; YOKOHAMA DOLL HOUSE 4F (MOTOMACHI-CHUKAGAI STATION)2/4, 2/18 &ndash; AKAIKUTSU HALL 4F MOTOMACHI-CHUKAGAI STATION, EXIT 4 2MIN WALKMinato Mirai LineKanagawa Ken, Yokohama Shi, Chuo Ku, Yamashita 18FEBUARY 11 &ndash; NIGIWAIZA HALL B2F (SAKURAGICHO STATION)2/11, 2/25 &ndash; NIGIWAIZA HALL B2F SAKURAGICHO STATION, MAIN EXIT 3MIN WALKKeihin Tohoku, Negishi, Yokohama, Blue LinesKanagawa Ken, Yokohama Shi, Chuo Ku, Nogecho 3-110-1FEBUARY 18 &ndash; YOKOHAMA DOLL HOUSE 4F (MOTOMACHI-CHUKAGAI STATION)FEBUARY 25 &ndash; NIGIWAIZA HALL B2F (SAKURAGICHO STATION)</description><styleUrl>#health.png</styleUrl><Point><coordinates>139.629196,35.449036,0.000000</coordinates></Point></Placemark>
<Placemark><name>Meet Ryoko</name><description></description><styleUrl>#culture.png</styleUrl><Point><coordinates>139.747291,35.646159,0.000000</coordinates></Point></Placemark>
<Placemark><name>Haruya&apos;s</name><description>301 Antelope</description><styleUrl>#residence.png</styleUrl><Point><coordinates>139.635653,35.652567,0.000000</coordinates></Point></Placemark>
<Placemark><name>Jesus Lifehouse Yokohama</name><description>http://yokohama.jesuslifehouse.com/en/church-services/EVERY SATURDAY 7:00PMFEBUARY 4 &ndash; YOKOHAMA DOLL HOUSE 4F (MOTOMACHI-CHUKAGAI STATION)2/4, 2/18 &ndash; AKAIKUTSU HALL 4F MOTOMACHI-CHUKAGAI STATION, EXIT 4 2MIN WALKMinato Mirai LineKanagawa Ken, Yokohama Shi, Chuo Ku, Yamashita 18FEBUARY 11 &ndash; NIGIWAIZA HALL B2F (SAKURAGICHO STATION)2/11, 2/25 &ndash; NIGIWAIZA HALL B2F SAKURAGICHO STATION, MAIN EXIT 3MIN WALKKeihin Tohoku, Negishi, Yokohama, Blue LinesKanagawa Ken, Yokohama Shi, Chuo Ku, Nogecho 3-110-1FEBUARY 18 &ndash; YOKOHAMA DOLL HOUSE 4F (MOTOMACHI-CHUKAGAI STATION)FEBUARY 25 &ndash; NIGIWAIZA HALL B2F (SAKURAGICHO STATION)</description><styleUrl>#health.png</styleUrl><Point><coordinates>139.652130,35.443184,0.000000</coordinates></Point></Placemark>
<Placemark><name>Cemetery</name><description></description><styleUrl>#entertainment.png</styleUrl><Point><coordinates>139.746987,35.690124,0.000000</coordinates></Point></Placemark>
<Placemark><name>Motomachi</name><description>Naka Ward, Yokohama, Kanagawa Prefecture, Japan</description><styleUrl>#other.png</styleUrl><Point><coordinates>139.649719,35.440365,0.000000</coordinates></Point></Placemark>
<Placemark><name>Nagoya JR West Exit</name><description>Arrive 6:40 am 20th, 16:50 checkin 21st, 17:00 departure</description><styleUrl>#car_services.png</styleUrl><Point><coordinates>136.879957,35.172411,0.000000</coordinates></Point></Placemark>
<Placemark><name>Eri Iwabuchi</name><description>http://www.facebook.com/profile.php?id=1466058807 Sendai Japan</description><styleUrl>#culture.png</styleUrl><Point><coordinates>140.869354,38.268215,0.000000</coordinates></Point></Placemark>
<Placemark><name>Uguisudani A</name><description>Uguisudani sta. [JR Yamanote line] - 3 min. walk Nippori sta. [JR Yamanote &amp; Keisei line] - 10 min. walk APPROX. TIME TO KEY STATION (including walking time) Ueno - 9 min. | Ikebukuro - 20 min. | Shinjuku - 30 min.Tōkyō-to, Arakawa-ku, Higashiogu, ２丁目２９−１０Tōkyō-to, Taitō-ku, Negishi, ２丁目１２−１１ Japan</description><styleUrl>#other.png</styleUrl><Point><coordinates>139.771484,35.742168,0.000000</coordinates></Point></Placemark>
<Placemark><name>Cosmo Plaza Akabane</name><description>2750¥ per night1-39-3 Akabane, Kita-ku, Tokyohttp://www.japanican.com/hotels/accessmap.aspx?ar=A27&amp;st=4017A17&amp;dt=20120303&amp;sn=6&amp;pn=1&amp;rn=1&amp;pr=-4000&amp;prto=4000#shisetsumenu</description><styleUrl>#other.png</styleUrl><Point><coordinates>139.720398,35.780922,0.000000</coordinates></Point></Placemark>
<Placemark><name>Tokyo University IMSUT</name><description></description><styleUrl>#education.png</styleUrl><Point><coordinates>139.724899,35.639832,0.000000</coordinates></Point></Placemark>
<Placemark><name>Mason Delapp&apos;s</name><description>http://www.gh-tokyo.com/prop27.htm東京都国分寺市東元町2－11－28Tōkyō-to, Kokubunji-shi, Higashimotomachi, ２丁目１１−２８Japan</description><styleUrl>#other.png</styleUrl><Point><coordinates>139.483505,35.694801,0.000000</coordinates></Point></Placemark>
<Placemark><name>Narita Airport</name><description></description><styleUrl>#car_services.png</styleUrl><Point><coordinates>140.370978,35.767259,0.000000</coordinates></Point></Placemark>
<Placemark><name>Shoichi Yoshizaki</name><description></description><styleUrl>#culture.png</styleUrl><Point><coordinates>139.864418,35.683850,0.000000</coordinates></Point></Placemark>
<Placemark><name>Untitled Bookmark</name><description></description><styleUrl>#other.png</styleUrl><Point><coordinates>139.714754,35.700760,0.000000</coordinates></Point></Placemark>
<Placemark><name>Ayako Hori</name><description>Kansai Airporthttp://www.facebook.com/profile.php?id=681059785&amp;sk=info</description><styleUrl>#culture.png</styleUrl><Point><coordinates>135.243973,34.435329,0.000000</coordinates></Point></Placemark>
<Placemark><name>Hachiko Ryoko 19:00</name><description>By the dog</description><styleUrl>#culture.png</styleUrl><Point><coordinates>139.700545,35.659020,0.000000</coordinates></Point></Placemark>
<Placemark><name>Jesus Lifehouse Yokohama</name><description>http://yokohama.jesuslifehouse.com/en/church-services/EVERY SATURDAY 7:00PMFEBUARY 4 &ndash; YOKOHAMA DOLL HOUSE 4F (MOTOMACHI-CHUKAGAI STATION)2/4, 2/18 &ndash; AKAIKUTSU HALL 4F MOTOMACHI-CHUKAGAI STATION, EXIT 4 2MIN WALKMinato Mirai LineKanagawa Ken, Yokohama Shi, Chuo Ku, Yamashita 18FEBUARY 11 &ndash; NIGIWAIZA HALL B2F (SAKURAGICHO STATION)2/11, 2/25 &ndash; NIGIWAIZA HALL B2F SAKURAGICHO STATION, MAIN EXIT 3MIN WALKKeihin Tohoku, Negishi, Yokohama, Blue LinesKanagawa Ken, Yokohama Shi, Chuo Ku, Nogecho 3-110-1FEBUARY 18 &ndash; YOKOHAMA DOLL HOUSE 4F (MOTOMACHI-CHUKAGAI STATION)FEBUARY 25 &ndash; NIGIWAIZA HALL B2F (SAKURAGICHO STATION)</description><styleUrl>#health.png</styleUrl><Point><coordinates>139.652130,35.443184,0.000000</coordinates></Point></Placemark>
<Placemark><name>Toshiba Science Museum</name><description>10 am - 6 pm</description><styleUrl>#entertainment.png</styleUrl><Point><coordinates>139.694560,35.531870,0.000000</coordinates></Point></Placemark>
<Placemark><name>Kawaguchiko photo</name><description></description><styleUrl>#entertainment.png</styleUrl><Point><coordinates>138.768907,35.503871,0.000000</coordinates></Point></Placemark>
<Placemark><name>CCC Conference</name><description>国立青少年教育振興機構（独立行政法人）</description><styleUrl>#health.png</styleUrl><Point><coordinates>139.693039,35.675488,0.000000</coordinates></Point></Placemark>
<Placemark><name>Shibuya Sendagaya</name><description>http://www.sakura-house.com/en/B00059/room.htmlYoyogi station sta. [JR Yamanote Line] - 8 min. walk Kitasando Sta. (F14) [Subway Fukutoshin Line] - 3 min. walk Sendagaya Sta. [JRSobu Line] - 8 min. walk APPROX. TIME TO KEY STATION (including walking time) Shibuya - 7min. Shinjuku - 13min. Ikebukuro - 15min. Roppongi - 20min.Tōkyō-to, Shibuya-ku, Sendagaya, ４丁目１２−１２Japan</description><styleUrl>#other.png</styleUrl><Point><coordinates>139.706696,35.678871,0.000000</coordinates></Point></Placemark>
<Placemark><name>Punk Spring Tokyo</name><description>Makuhari Messe31 March 2012http://www.punkspring.com/12/</description><styleUrl>#entertainment.png</styleUrl><Point><coordinates>140.036804,35.646721,0.000000</coordinates></Point></Placemark>
<Placemark><name>Jesus Lifehouse Osaka</name><description>Tuesday 7:00 pmhttp://osaka.jesuslifehouse.com/en/services2012/2/21 &ndash; CHUO KAIKAN (NAGAHORIBASHI STATION EXIT 6)2012/2/28 &ndash; CHUO KAIKAN (NAGAHORIBASHI STATION EXIT 6)2012/3/6 &ndash; CHUO KAIKAN (NAGAHORIBASHI STATION EXIT 6)2012/3/13 &ndash; CHUO KAIKAN (NAGAHORIBASHI STATION EXIT 6)</description><styleUrl>#health.png</styleUrl><Point><coordinates>135.506363,34.674644,0.000000</coordinates></Point></Placemark>
<Placemark><name>Hiroshima, Hiroshima Prefecture</name><description>Japan</description><styleUrl>#entertainment.png</styleUrl><Point><coordinates>132.455292,34.385204,0.000000</coordinates></Point></Placemark>
<Placemark><name>Tokyo University IMSUT</name><description></description><styleUrl>#other.png</styleUrl><Point><coordinates>139.724899,35.639832,0.000000</coordinates></Point></Placemark>
<Placemark><name>Yukie Hashimoto</name><description>Anjo-shi, Aichi, Japanhttp://www.facebook.com/yukiehy-hashimoto_oy@hotmail.co.jp</description><styleUrl>#culture.png</styleUrl><Point><coordinates>137.080292,34.958641,0.000000</coordinates></Point></Placemark>
<Placemark><name>Sakura Hostel Asakusa</name><description>¥15300 per week</description><styleUrl>#residence.png</styleUrl><Point><coordinates>139.794830,35.716003,0.000000</coordinates></Point></Placemark>
<Placemark><name>Miki Otsuka</name><description>http://www.facebook.com/profile.php?id=625409805&amp;sk=wall +81563214217 Nagoya-shi, Aichi, Japan Japan</description><styleUrl>#culture.png</styleUrl><Point><coordinates>136.906403,35.181446,0.000000</coordinates></Point></Placemark>
<Placemark><name>Mayumi Nonogaki</name><description>http://www.facebook.com/profile.php?id=100000581077943&amp;sk=info no.omelet0v0rice.no1@hotmail.co.jp Kyoto-shi, Kyoto, Japan Japan</description><styleUrl>#culture.png</styleUrl><Point><coordinates>135.768036,35.011635,0.000000</coordinates></Point></Placemark>
<Placemark><name>Akihabara Station</name><description>Akihabara 秋葉原秋葉原駅（東京</description><styleUrl>#car_services.png</styleUrl><Point><coordinates>139.774216,35.698685,0.000000</coordinates></Point></Placemark>
<Placemark><name>Misaki Takemura</name><description>http://www.facebook.com/profile.php?id=1470085417 pink_misaki_pink@yahoo.co.jppink.m@coast.ocn.ne.jp Tsu-shi, Mie, Japan Japan</description><styleUrl>#culture.png</styleUrl><Point><coordinates>136.505692,34.718597,0.000000</coordinates></Point></Placemark>
<Placemark><name>Hakata</name><description>Arrive 7:00 24th</description><styleUrl>#car_services.png</styleUrl><Point><coordinates>130.420551,33.590242,0.000000</coordinates></Point></Placemark>
<Placemark><name>Nara, Nara Prefecture</name><description>Japan</description><styleUrl>#entertainment.png</styleUrl><Point><coordinates>135.804993,34.685085,0.000000</coordinates></Point></Placemark>
<Placemark><name>Tohoku University</name><description>http://www.eng.tohoku.ac.jp/english/program/?menu=itn</description><styleUrl>#education.png</styleUrl><Point><coordinates>140.841507,38.254864,0.000000</coordinates></Point></Placemark>
<Placemark><name>Sento bath house</name><description></description><styleUrl>#other.png</styleUrl><Point><coordinates>139.714832,35.695378,0.000000</coordinates></Point></Placemark>
<Placemark><name>I love Miki</name><description></description><styleUrl>#other.png</styleUrl><Point><coordinates>139.738971,35.750735,0.000000</coordinates></Point></Placemark>
<Placemark><name>Misaki Ishii</name><description>http://www.facebook.com/profile.php?id=100002104621656 mi.hm229@gmail.com Yamagata, Yamagata Prefecture Japan</description><styleUrl>#culture.png</styleUrl><Point><coordinates>140.339600,38.255440,0.000000</coordinates></Point></Placemark>
<Placemark><name>Kaori Saito</name><description>Rush Corp1-41-8 Minami Senju, Arakawa-ku, Tokyo, Japan南千住駅（東京）http://www.facebook.com/saito.kaori+81-80-4367-3214	h101336@yamata.icu.ac.jppsuke1005@gmail.compsuke1005@live.jp</description><styleUrl>#culture.png</styleUrl><Point><coordinates>139.798798,35.733345,0.000000</coordinates></Point></Placemark>
<Placemark><name>Apple Store</name><description></description><styleUrl>#shop.png</styleUrl><Point><coordinates>139.699765,35.661957,0.000000</coordinates></Point></Placemark>
<Placemark><name>Punk Spring Tokyo</name><description>Makuhari Messe31 March 2012http://www.punkspring.com/12/</description><styleUrl>#entertainment.png</styleUrl><Point><coordinates>140.036804,35.646721,0.000000</coordinates></Point></Placemark>
<Placemark><name>Hope International Fellowship</name><description>Sunday ServicesPrayer: 9:30 AMWorship Service: 10:30 AMChildren&rsquo;s Church: 11:15 AMWednesday Prayer Meeting:7:00 PMHope International Fellowship616-1 Kashiwakubo, Izu-shiShizuoka-ken 410-2407TEL &amp; FAX: 0558-72-3844</description><styleUrl>#health.png</styleUrl><Point><coordinates>138.952866,34.978813,0.000000</coordinates></Point></Placemark>
<Placemark><name>Kaori Osato</name><description>http://www.facebook.com/profile.php?id=656683513 sweetfragrance1215@yahoo.co.jp Yokohama, Kanagawa Prefecture, Japan</description><styleUrl>#culture.png</styleUrl><Point><coordinates>139.638031,35.443707,0.000000</coordinates></Point></Placemark>
<Placemark><name>Kosuke Sumida</name><description>Toyonaka, Osaka Prefecture+818015081440thon-@docomo.ne.jp</description><styleUrl>#culture.png</styleUrl><Point><coordinates>135.469742,34.781265,0.000000</coordinates></Point></Placemark>
<Placemark><name>HisCall Church Nagoya</name><description>http://hiscallchurch.com/?page_id=11★サンデーサービス（日曜日）午前11時＆午後2時Sunday Service on Sunday, 11:00am&amp;2:00pmPLACE: フェイマス丸の内ビル8F/FAMOUS Marunouchi 8F ★J-mix（土曜日）夜6時　/J-mix on Saturday 6:00pmPLACE: フェイマス丸の内ビル8F/FAMOUS Marunouchi 8F</description><styleUrl>#health.png</styleUrl><Point><coordinates>136.906952,35.175030,0.000000</coordinates></Point></Placemark>
<Placemark><name>Jesus Lifehouse Sendai</name><description>1:00 pm Sunday6:30 pm Friday English Classhttp://sendai.jesuslifehouse.com/en/church-services/http://www.facebook.com/JLHSendai</description><styleUrl>#health.png</styleUrl><Point><coordinates>140.883682,38.261070,0.000000</coordinates></Point></Placemark>
<Placemark><name>Jay Daniel</name><description>7-12-17 Minami Kasugaoka house, Room 105, Ibaraki, 567-0046+818043917964（株）フリーハンド 大阪営業所</description><styleUrl>#culture.png</styleUrl><Point><coordinates>135.529953,34.821247,0.000000</coordinates></Point></Placemark>
<Placemark><name>Sakura Hostel Asakusa</name><description>¥15300 per week</description><styleUrl>#residence.png</styleUrl><Point><coordinates>139.794830,35.716003,0.000000</coordinates></Point></Placemark>
<Placemark><name>Grace Bible Church Sapporo</name><description>〒001－0906　札幌市北区新琴似６条１３丁目２－１Hokkaidō, Sapporo-shi, Kita-ku, Shinkotoni 6 Jō, １３丁目２−１http://www.gbc-s.com/</description><styleUrl>#health.png</styleUrl><Point><coordinates>141.311768,43.119217,0.000000</coordinates></Point></Placemark>
<Placemark><name>Value-Bus</name><description>West Exit, 23:45 checkin, 23:55 departure</description><styleUrl>#car_services.png</styleUrl><Point><coordinates>139.620397,35.465384,0.000000</coordinates></Point></Placemark>
<Placemark><name>HisCall Church Nagoya</name><description>http://hiscallchurch.com/?page_id=11Aichi-ken, Nagoya-shi, Mizuho-ku, Tōeichō, ２丁目１４★ウェンズデーサービス（水曜日）午後7時30分/Passion Night on Wednesday, 7:30pmPLACE: ヒズコールコミュニティーハウス　/His Call Community House  Japan</description><styleUrl>#health.png</styleUrl><Point><coordinates>136.937256,35.135761,0.000000</coordinates></Point></Placemark>
<Placemark><name>National Museum of Nature &amp; Science</name><description>9 am - 5 pm</description><styleUrl>#entertainment.png</styleUrl><Point><coordinates>139.776340,35.716226,0.000000</coordinates></Point></Placemark>
<Placemark><name>Cosmo Plaza Akabane</name><description>2750¥ per night1-39-3 Akabane, Kita-ku, Tokyohttp://www.japanican.com/hotels/accessmap.aspx?ar=A27&amp;st=4017A17&amp;dt=20120303&amp;sn=6&amp;pn=1&amp;rn=1&amp;pr=-4000&amp;prto=4000#shisetsumenu</description><styleUrl>#other.png</styleUrl><Point><coordinates>139.720398,35.780922,0.000000</coordinates></Point></Placemark>
<Placemark><name>Nagasaki, Nagasaki Prefecture</name><description>Japan</description><styleUrl>#entertainment.png</styleUrl><Point><coordinates>129.877670,32.750286,0.000000</coordinates></Point></Placemark>
<Placemark><name>Gyomu</name><description>業務スーパー業務スーパー新宿榎店</description><styleUrl>#other.png</styleUrl><Point><coordinates>139.729431,35.705105,0.000000</coordinates></Point></Placemark>
<Placemark><name>Nagasaki, Nagasaki Prefecture</name><description>Japan</description><styleUrl>#entertainment.png</styleUrl><Point><coordinates>129.877670,32.750286,0.000000</coordinates></Point></Placemark>
<Placemark><name>Grace Tokyo Church</name><description>http://www.gracetokyo.org/ 10:30-12:00 Sunday Shibuya Station 35.6630255, 139.7003084Tōkyō-to, Shibuya-ku, Jinnan, １丁目１３−３ Japan</description><styleUrl>#health.png</styleUrl><Point><coordinates>139.700302,35.663059,0.000000</coordinates></Point></Placemark>
<Placemark><name>Osaka JR</name><description>Arrive 20:20 21st</description><styleUrl>#car_services.png</styleUrl><Point><coordinates>135.495211,34.701797,0.000000</coordinates></Point></Placemark>
<Placemark><name>Kosuke Sumida</name><description>Toyonaka, Osaka Prefecture+818015081440thon-@docomo.ne.jp</description><styleUrl>#culture.png</styleUrl><Point><coordinates>135.469742,34.781265,0.000000</coordinates></Point></Placemark>
<Placemark><name>Osaka Plaza Motor Pool</name><description>21:10 checkin, 21:30 departure 23rd</description><styleUrl>#car_services.png</styleUrl><Point><coordinates>135.498486,34.709174,0.000000</coordinates></Point></Placemark>
