<Placemark><name>New Philadelphia Church</name><description>2:30 pm, 14F, Seacloud Hotel 4F, Ocean Room, 0519326832, next to Holly&apos;s Coffee, opposite Baskin Robbins</description><styleUrl>#other.png</styleUrl><Point><coordinates>129.119116,35.154267,0.000000</coordinates></Point></Placemark>
<Placemark><name>Hyunjung Lucy Jun</name><description>SK Lubricantshttp://www.facebook.com/permalink.php?story_fbid=3199682668866&amp;id=1170003012http://www.facebook.com/profile.php?id=1170003012&amp;sk=info+82 1049100603hyunjungw@gmail.com</description><styleUrl>#culture.png</styleUrl><Point><coordinates>127.009010,37.558308,0.000000</coordinates></Point></Placemark>
<Placemark><name>Phone</name><description></description><styleUrl>#other.png</styleUrl><Point><coordinates>129.060189,35.158375,0.000000</coordinates></Point></Placemark>
<Placemark><name>Daelim Hotel for parents</name><description></description><styleUrl>#residence.png</styleUrl><Point><coordinates>127.422469,36.328600,0.000000</coordinates></Point></Placemark>
<Placemark><name>Hyeseong&apos;s 104-604</name><description></description><styleUrl>#culture.png</styleUrl><Point><coordinates>128.594916,35.900547,0.000000</coordinates></Point></Placemark>
<Placemark><name>Campus Crusade</name><description>7 pm Fridays</description><styleUrl>#health.png</styleUrl><Point><coordinates>128.628784,35.865916,0.000000</coordinates></Point></Placemark>
<Placemark><name>Prof. BJ Cho Apt 302</name><description></description><styleUrl>#culture.png</styleUrl><Point><coordinates>127.388774,36.387108,0.000000</coordinates></Point></Placemark>
<Placemark><name>Daedeok Presbyterian Church</name><description>Sunday 13:30, Thursday 19:30 Scientists &amp; Engineers Members International</description><styleUrl>#health.png</styleUrl><Point><coordinates>127.379104,36.380684,0.000000</coordinates></Point></Placemark>
<Placemark><name>KTX Arrives</name><description>13:37</description><styleUrl>#car_services.png</styleUrl><Point><coordinates>129.042476,35.116199,0.000000</coordinates></Point></Placemark>
<Placemark><name>Wolpyeong Exit 3-KAIST</name><description>8:28, 10:00, 11:00, 12:00, 13:00, 14:00, 15:00, 16:00, 17:00</description><styleUrl>#car_services.png</styleUrl><Point><coordinates>127.364342,36.358288,0.000000</coordinates></Point></Placemark>
<Placemark><name>Italian Restaurant</name><description></description><styleUrl>#other.png</styleUrl><Point><coordinates>127.354486,36.362083,0.000000</coordinates></Point></Placemark>
<Placemark><name>Hanbit Church</name><description>12:00</description><styleUrl>#health.png</styleUrl><Point><coordinates>127.358522,36.364461,0.000000</coordinates></Point></Placemark>
<Placemark><name>Calvary Chapel</name><description>11:00-12:15, 14:30-16:15. 갈보리채플교회 대전 유성구 궁동  432-7번지 1F/2F</description><styleUrl>#health.png</styleUrl><Point><coordinates>127.352750,36.360535,0.000000</coordinates></Point></Placemark>
<Placemark><name>Meet Jeehye</name><description></description><styleUrl>#culture.png</styleUrl><Point><coordinates>128.628220,35.877604,0.000000</coordinates></Point></Placemark>
<Placemark><name>Red Mango</name><description></description><styleUrl>#other.png</styleUrl><Point><coordinates>126.981712,37.564121,0.000000</coordinates></Point></Placemark>
<Placemark><name>Sejong City</name><description></description><styleUrl>#other.png</styleUrl><Point><coordinates>127.311195,36.393482,0.000000</coordinates></Point></Placemark>
<Placemark><name>Sooyeon Kim</name><description>Amore Pacifichttp://www.facebook.com/soobysooyeon/posts/3174571039494http://www.facebook.com/soobysooyeon/info+82 1090659972</description><styleUrl>#culture.png</styleUrl><Point><coordinates>126.923759,37.555237,0.000000</coordinates></Point></Placemark>
<Placemark><name>Sports Day</name><description>8:30</description><styleUrl>#other.png</styleUrl><Point><coordinates>128.616064,35.858181,0.000000</coordinates></Point></Placemark>
<Placemark><name>NPC Hillside Campus</name><description>Sunday Service 1 pm</description><styleUrl>#health.png</styleUrl><Point><coordinates>126.940063,37.474327,0.000000</coordinates></Point></Placemark>
<Placemark><name>Not Christian International Church</name><description>10:30 AM</description><styleUrl>#health.png</styleUrl><Point><coordinates>127.426151,36.352796,0.000000</coordinates></Point></Placemark>
<Placemark><name>Martin Ko</name><description>Ulsan, South Koreahttp://www.facebook.com/profile.php?id=100001586352860&amp;sk=infokokojae@hanmail.net</description><styleUrl>#culture.png</styleUrl><Point><coordinates>129.311356,35.538376,0.000000</coordinates></Point></Placemark>
<Placemark><name>Incheon Bus Terminal</name><description></description><styleUrl>#car_services.png</styleUrl><Point><coordinates>126.701242,37.441759,0.000000</coordinates></Point></Placemark>
<Placemark><name>Son Cook</name><description></description><styleUrl>#other.png</styleUrl><Point><coordinates>127.350240,36.362526,0.000000</coordinates></Point></Placemark>
<Placemark><name>Hana Centre</name><description>4F</description><styleUrl>#other.png</styleUrl><Point><coordinates>128.547524,35.853758,0.000000</coordinates></Point></Placemark>
<Placemark><name>Electronics Stores</name><description></description><styleUrl>#shop.png</styleUrl><Point><coordinates>127.094629,37.535176,0.000000</coordinates></Point></Placemark>
<Placemark><name>Jjimjilbang</name><description>9000 won</description><styleUrl>#other.png</styleUrl><Point><coordinates>127.381847,36.367180,0.000000</coordinates></Point></Placemark>
<Placemark><name>Seongdo Kim</name><description>Gongju, Chungcheongnam-do, South Koreahttp://www.facebook.com/profile.php?id=100002495531154&amp;sk=infofeast-cue@hanmail.net</description><styleUrl>#culture.png</styleUrl><Point><coordinates>127.119156,36.446533,0.000000</coordinates></Point></Placemark>
<Placemark><name>Moksanim&apos;s House</name><description>9F on right, 5 131 6</description><styleUrl>#culture.png</styleUrl><Point><coordinates>127.353358,36.362883,0.000000</coordinates></Point></Placemark>
<Placemark><name>Red Mango</name><description></description><styleUrl>#food_drink.png</styleUrl><Point><coordinates>126.874999,37.524944,0.000000</coordinates></Point></Placemark>
<Placemark><name>Myungha Madeline Lee</name><description>http://www.facebook.com/myungha.lee/posts/10150752267340971http://www.facebook.com/myungha.lee/infoSeongnam, Gyeonggi-do, South Korea</description><styleUrl>#culture.png</styleUrl><Point><coordinates>127.138870,37.444916,0.000000</coordinates></Point></Placemark>
<Placemark><name>Meet Sohee</name><description></description><styleUrl>#other.png</styleUrl><Point><coordinates>127.378149,36.351806,0.000000</coordinates></Point></Placemark>
<Placemark><name>Near Guro Digital Complex</name><description>KRW 300,000http://seoul.craigslist.co.kr/roo/2926489064.html</description><styleUrl>#other.png</styleUrl><Point><coordinates>126.901474,37.485249,0.000000</coordinates></Point></Placemark>
<Placemark><name>Sarah Haeryoung Park</name><description>http://www.facebook.com/permalink.php?story_fbid=10150599647517466&amp;id=571252465http://www.facebook.com/profile.php?id=571252465&amp;sk=infosarahlovesjesus17@hotmail.comSeoul, South Korea</description><styleUrl>#culture.png</styleUrl><Point><coordinates>126.977684,37.566437,0.000000</coordinates></Point></Placemark>
<Placemark><name>All Nations International Church</name><description>2 pm Sundays, 396-4 궁동 gung-dong 유성구 yuseong-gu 대전 DaejeonDaejeon, 01074592241</description><styleUrl>#health.png</styleUrl><Point><coordinates>127.348848,36.363005,0.000000</coordinates></Point></Placemark>
<Placemark><name>McDo</name><description></description><styleUrl>#food_drink.png</styleUrl><Point><coordinates>126.986804,37.569740,0.000000</coordinates></Point></Placemark>
<Placemark><name>Hanbat Arboretum</name><description></description><styleUrl>#other.png</styleUrl><Point><coordinates>127.387925,36.370546,0.000000</coordinates></Point></Placemark>
<Placemark><name>Bus to Pohang</name><description>6:30-21:00 7-10 mins, 1 hour</description><styleUrl>#other.png</styleUrl><Point><coordinates>128.634299,35.872307,0.000000</coordinates></Point></Placemark>
<Placemark><name>Nonghyup</name><description></description><styleUrl>#other.png</styleUrl><Point><coordinates>127.352375,36.362024,0.000000</coordinates></Point></Placemark>
<Placemark><name>Sarah&apos;s Apartment</name><description>1.105.2, room 502</description><styleUrl>#culture.png</styleUrl><Point><coordinates>127.318611,36.388950,0.000000</coordinates></Point></Placemark>
<Placemark><name>Mischa Lee</name><description>Cheongju-si, Chungcheongbuk-do, South Koreahttp://www.facebook.com/mischa.lee2?sk=infomischa.lee2@facebook.commisogaru0@nate.commllmichelle55@gmail.com</description><styleUrl>#culture.png</styleUrl><Point><coordinates>127.489029,36.642433,0.000000</coordinates></Point></Placemark>
<Placemark><name>Movie Theatre</name><description></description><styleUrl>#entertainment.png</styleUrl><Point><coordinates>128.594410,35.869968,0.000000</coordinates></Point></Placemark>
<Placemark><name>Juyoung Noh</name><description>Pusan National Universityhttp://www.facebook.com/permalink.php?story_fbid=10150631875807677&amp;id=510292676http://www.facebook.com/profile.php?id=510292676&amp;sk=info</description><styleUrl>#culture.png</styleUrl><Point><coordinates>129.079605,35.233303,0.000000</coordinates></Point></Placemark>
<Placemark><name>Meet Christensen</name><description>Costco</description><styleUrl>#culture.png</styleUrl><Point><coordinates>126.892122,37.527694,0.000000</coordinates></Point></Placemark>
<Placemark><name>Gwangan Station</name><description>Exit 5</description><styleUrl>#car_services.png</styleUrl><Point><coordinates>129.113219,35.157972,0.000000</coordinates></Point></Placemark>
<Placemark><name>Oriental Medicine Museum</name><description></description><styleUrl>#other.png</styleUrl><Point><coordinates>128.589917,35.868479,0.000000</coordinates></Point></Placemark>
<Placemark><name>Bike Pump</name><description></description><styleUrl>#car_services.png</styleUrl><Point><coordinates>128.620766,35.859255,0.000000</coordinates></Point></Placemark>
<Placemark><name>Jjimjilbang</name><description></description><styleUrl>#other.png</styleUrl><Point><coordinates>129.331728,36.027758,0.000000</coordinates></Point></Placemark>
<Placemark><name>W7 Kitchen</name><description></description><styleUrl>#other.png</styleUrl><Point><coordinates>127.355887,36.370874,0.000000</coordinates></Point></Placemark>
<Placemark><name>Bicycle </name><description></description><styleUrl>#other.png</styleUrl><Point><coordinates>127.003616,37.502988,0.000000</coordinates></Point></Placemark>
<Placemark><name>Adelia Hotel</name><description></description><styleUrl>#other.png</styleUrl><Point><coordinates>127.340883,36.355924,0.000000</coordinates></Point></Placemark>
<Placemark><name>Joyful Hearts Chicken</name><description></description><styleUrl>#other.png</styleUrl><Point><coordinates>127.388839,36.358129,0.000000</coordinates></Point></Placemark>
<Placemark><name>Hanatour</name><description></description><styleUrl>#other.png</styleUrl><Point><coordinates>127.353090,36.361584,0.000000</coordinates></Point></Placemark>
<Placemark><name>Bus Terminal</name><description></description><styleUrl>#other.png</styleUrl><Point><coordinates>127.436786,36.350333,0.000000</coordinates></Point></Placemark>
<Placemark><name>Bicycle</name><description>10,000 won no brakes</description><styleUrl>#other.png</styleUrl><Point><coordinates>127.404165,36.341205,0.000000</coordinates></Point></Placemark>
<Placemark><name>Meet Inho</name><description></description><styleUrl>#culture.png</styleUrl><Point><coordinates>127.005257,37.503460,0.000000</coordinates></Point></Placemark>
<Placemark><name>Red Mango</name><description></description><styleUrl>#food_drink.png</styleUrl><Point><coordinates>127.123826,37.537894,0.000000</coordinates></Point></Placemark>
<Placemark><name>Myungha Madeline Lee</name><description>http://www.facebook.com/myungha.lee/posts/10150752267340971http://www.facebook.com/myungha.lee/infoSeongnam, Gyeonggi-do, South Korea</description><styleUrl>#culture.png</styleUrl><Point><coordinates>127.138870,37.444916,0.000000</coordinates></Point></Placemark>
<Placemark><name>KAIST Main Gate to Various</name><description>12:10-30 to Daedeok. 13:00? 11:30?</description><styleUrl>#health.png</styleUrl><Point><coordinates>127.363486,36.366160,0.000000</coordinates></Point></Placemark>
<Placemark><name>Yu Jin Choo</name><description>Seoul, South Koreahttp://www.facebook.com/profile.php?id=598748836&amp;sk=infoporifra@hotmail.com</description><styleUrl>#culture.png</styleUrl><Point><coordinates>126.978653,37.566521,0.000000</coordinates></Point></Placemark>
<Placemark><name>Intercity Hotel</name><description>200,000 won per night</description><styleUrl>#other.png</styleUrl><Point><coordinates>127.347720,36.354291,0.000000</coordinates></Point></Placemark>
<Placemark><name>Sooyeon Kim</name><description>Amore Pacifichttp://www.facebook.com/soobysooyeon/posts/3174571039494http://www.facebook.com/soobysooyeon/info+82 1090659972</description><styleUrl>#culture.png</styleUrl><Point><coordinates>126.923759,37.555237,0.000000</coordinates></Point></Placemark>
<Placemark><name>A-Data</name><description>ADATA Technology (Korea)http://www.adata-group.com/index.php?action=aa_main&amp;page=aa_worldwide&amp;lan=enAddress: 7th Fl.,No.703, Samho Company LTD., B-Bldg., Yangjae2-dong,Seocho-gu, Seoul 137-941, KoreaOffice phone: +82-2-589-2554 Service center: +82-80-710-4226Fax: +82-2-589-2560Website: www.adata.co.krE-mail: adata_kr@adata-group.com</description><styleUrl>#education.png</styleUrl><Point><coordinates>127.041351,37.470741,0.000000</coordinates></Point></Placemark>
<Placemark><name>Mosque</name><description></description><styleUrl>#other.png</styleUrl><Point><coordinates>127.355011,36.361415,0.000000</coordinates></Point></Placemark>
<Placemark><name>Daehwa-dong Catholic Church</name><description>15:00, 16-210 Daehwa-dong</description><styleUrl>#health.png</styleUrl><Point><coordinates>127.418578,36.367319,0.000000</coordinates></Point></Placemark>
<Placemark><name>LG Electronics</name><description></description><styleUrl>#other.png</styleUrl><Point><coordinates>126.889244,37.475296,0.000000</coordinates></Point></Placemark>
<Placemark><name>Near Itaewon</name><description>350,000 KRW/monthhttp://seoul.craigslist.co.kr/roo/2914007361.html250,000+ KRW/monthhttp://seoul.craigslist.co.kr/roo/2909719010.html</description><styleUrl>#residence.png</styleUrl><Point><coordinates>126.992050,37.534122,0.000000</coordinates></Point></Placemark>
<Placemark><name>Starbucks</name><description>Meet Jamie 5 pm Monday 13th</description><styleUrl>#food_drink.png</styleUrl><Point><coordinates>127.387887,36.346465,0.000000</coordinates></Point></Placemark>
<Placemark><name>Daniel Lim</name><description>18:00 23/11/2013. 512 R601 B105 Hagi-dong, Yuseong-gu, Daejeon</description><styleUrl>#culture.png</styleUrl><Point><coordinates>127.318588,36.388578,0.000000</coordinates></Point></Placemark>
<Placemark><name>Joyful Hearts Chicken</name><description></description><styleUrl>#food_drink.png</styleUrl><Point><coordinates>127.375316,36.350491,0.000000</coordinates></Point></Placemark>
<Placemark><name>고물상 </name><description></description><styleUrl>#other.png</styleUrl><Point><coordinates>127.395777,36.340420,0.000000</coordinates></Point></Placemark>
<Placemark><name>Woori Bank</name><description>9:00-16:00 M-F</description><styleUrl>#bank.png</styleUrl><Point><coordinates>127.360588,36.366948,0.000000</coordinates></Point></Placemark>
<Placemark><name>Dinner Stop</name><description></description><styleUrl>#food_drink.png</styleUrl><Point><coordinates>128.195616,38.139053,0.000000</coordinates></Point></Placemark>
<Placemark><name>Hyunhee Chung</name><description>Hanyang Universityhttp://www.facebook.com/profile.php?id=100002665628636&amp;sk=infonimphworld@hanmail.netnimphworld@nate.com</description><styleUrl>#culture.png</styleUrl><Point><coordinates>127.045380,37.555954,0.000000</coordinates></Point></Placemark>
<Placemark><name>Sarah Haeryoung Park</name><description>http://www.facebook.com/permalink.php?story_fbid=10150599647517466&amp;id=571252465http://www.facebook.com/profile.php?id=571252465&amp;sk=infosarahlovesjesus17@hotmail.comSeoul, South Korea</description><styleUrl>#culture.png</styleUrl><Point><coordinates>126.977966,37.566536,0.000000</coordinates></Point></Placemark>
<Placemark><name>Government Complex Bus Terminal</name><description>23,100 to Incheon. No airport limousine for 14,500</description><styleUrl>#car_services.png</styleUrl><Point><coordinates>127.379816,36.361721,0.000000</coordinates></Point></Placemark>
<Placemark><name>Joohee Lucy Kang</name><description>Siheung, Gyeonggi-do, South Koreahttp://www.facebook.com/profile.php?id=1498881591&amp;sk=info+82 1038300755ky199075@hanmail.netrkdwk75@nate.com</description><styleUrl>#culture.png</styleUrl><Point><coordinates>126.803101,37.379887,0.000000</coordinates></Point></Placemark>
<Placemark><name>Suncheon</name><description></description><styleUrl>#other.png</styleUrl><Point><coordinates>127.506303,34.944834,0.000000</coordinates></Point></Placemark>
<Placemark><name>Level</name><description>377 m above sea level</description><styleUrl>#other.png</styleUrl><Point><coordinates>127.277559,36.365328,0.000000</coordinates></Point></Placemark>
<Placemark><name>Mini Studio</name><description>350,000 KRW = 377.4 NZD/monthhttp://seoul.craigslist.co.kr/roo/2928419240.htmlFor further information, plz contact mr. Kwon, 010-3097-9663( Monday-Sunday, 11am-12pm). If you are calling from foreign country, it is +82 10 3097 9663. Plz respect the time zone. And also, my email address is skiyaki777@naver.com. plz send me any question by email. I am hope to serve you well in our Morning House.</description><styleUrl>#residence.png</styleUrl><Point><coordinates>127.027443,37.497913,0.000000</coordinates></Point></Placemark>
<Placemark><name>Myungha Madeline Lee</name><description>http://www.facebook.com/myungha.lee/posts/10150752267340971http://www.facebook.com/myungha.lee/infomyung_ha@hotmail.com</description><styleUrl>#culture.png</styleUrl><Point><coordinates>126.938416,37.565533,0.000000</coordinates></Point></Placemark>
<Placemark><name>Mrs Jo and Donghyun Homestay</name><description>171-9 Sincheon 3(sam)-dong, 502-Ho, Dong-gu, Daegu, 701-825, South Korea</description><styleUrl>#residence.png</styleUrl><Point><coordinates>128.621317,35.869818,0.000000</coordinates></Point></Placemark>
<Placemark><name>AirBNB Mum</name><description>2nd from driveway</description><styleUrl>#residence.png</styleUrl><Point><coordinates>128.637700,35.884088,0.000000</coordinates></Point></Placemark>
<Placemark><name>Jjimjilbang 찜질방</name><description>9000 won, 535-5 Bongmyeong-do, Yuseong-gu</description><styleUrl>#other.png</styleUrl><Point><coordinates>127.341506,36.354640,0.000000</coordinates></Point></Placemark>
<Placemark><name>Jinsung Jo</name><description>Anyang, Gyeonggi-do, South Koreahttp://www.facebook.com/permalink.php?story_fbid=259491217478558&amp;id=100002530447859http://www.facebook.com/profile.php?id=100002530447859&amp;sk=info+82 1071408075jojinsung@nate.com</description><styleUrl>#culture.png</styleUrl><Point><coordinates>126.956818,37.394253,0.000000</coordinates></Point></Placemark>
<Placemark><name>Electronics Market</name><description></description><styleUrl>#shop.png</styleUrl><Point><coordinates>127.393917,36.340069,0.000000</coordinates></Point></Placemark>
<Placemark><name>NPC Itaewon Campus</name><description>Sunday Service 4 pm</description><styleUrl>#health.png</styleUrl><Point><coordinates>126.999184,37.528248,0.000000</coordinates></Point></Placemark>
<Placemark><name>고물상 </name><description></description><styleUrl>#other.png</styleUrl><Point><coordinates>127.388290,36.356643,0.000000</coordinates></Point></Placemark>
<Placemark><name>Yu Jin Choo</name><description>Seoul, South Koreahttp://www.facebook.com/profile.php?id=598748836&amp;sk=infoporifra@hotmail.com</description><styleUrl>#culture.png</styleUrl><Point><coordinates>126.977966,37.566536,0.000000</coordinates></Point></Placemark>
<Placemark><name>Palace</name><description></description><styleUrl>#culture.png</styleUrl><Point><coordinates>126.974810,37.563460,0.000000</coordinates></Point></Placemark>
<Placemark><name>CIC Church</name><description>TCIS Performing Arts Center, service 9:30 am</description><styleUrl>#health.png</styleUrl><Point><coordinates>127.398777,36.415987,0.000000</coordinates></Point></Placemark>
<Placemark><name>Restaurant with Mrs Jo</name><description></description><styleUrl>#other.png</styleUrl><Point><coordinates>128.617221,35.832138,0.000000</coordinates></Point></Placemark>
<Placemark><name>Kyungpook National University Church</name><description>11:30 am first Sunday, 2 pm English</description><styleUrl>#health.png</styleUrl><Point><coordinates>128.615376,35.891854,0.000000</coordinates></Point></Placemark>
<Placemark><name>Bicycle</name><description>푸른자워ㄴ 35,000 won +82532704250</description><styleUrl>#other.png</styleUrl><Point><coordinates>128.640720,35.878238,0.000000</coordinates></Point></Placemark>
<Placemark><name>KTX 127</name><description>12:51 pm - 13:37 pm</description><styleUrl>#car_services.png</styleUrl><Point><coordinates>128.628811,35.879073,0.000000</coordinates></Point></Placemark>
<Placemark><name>Jongro Mac</name><description></description><styleUrl>#other.png</styleUrl><Point><coordinates>128.589439,35.870541,0.000000</coordinates></Point></Placemark>
<Placemark><name>Korean BBQ</name><description></description><styleUrl>#food_drink.png</styleUrl><Point><coordinates>127.368422,36.349295,0.000000</coordinates></Point></Placemark>
<Placemark><name>Busan Ferry Terminal</name><description>Arrive 18:00 24th</description><styleUrl>#car_services.png</styleUrl><Point><coordinates>129.041020,35.103654,0.000000</coordinates></Point></Placemark>
<Placemark><name>SK Telecom</name><description></description><styleUrl>#other.png</styleUrl><Point><coordinates>127.052933,37.497349,0.000000</coordinates></Point></Placemark>
<Placemark><name>Foreign Food Mart, World Food</name><description></description><styleUrl>#food_drink.png</styleUrl><Point><coordinates>127.431821,36.330966,0.000000</coordinates></Point></Placemark>
<Placemark><name>Sarang Church (사랑의교회)</name><description>1316-16 Seocho 4(sa)-dong, Seocho-gu, Seoul82-23479-7707http://english.sarang.org/English: 10:00, 12:00, 14:00Dawn: 05:20Wednesday: 19:30Friday: 19:50Sunday: 06:15, 08;00, 10:00, 12:00, 14:00, 16:00</description><styleUrl>#health.png</styleUrl><Point><coordinates>127.023827,37.500851,0.000000</coordinates></Point></Placemark>
<Placemark><name>Korean Anglican Cathedral</name><description>No English service at 11 am, 대전광역시 중구 선화동 87-6 대한성공회 대전주교좌교회</description><styleUrl>#health.png</styleUrl><Point><coordinates>127.420366,36.336237,0.000000</coordinates></Point></Placemark>
<Placemark><name>Heemang 923</name><description></description><styleUrl>#residence.png</styleUrl><Point><coordinates>127.356797,36.368003,0.000000</coordinates></Point></Placemark>
<Placemark><name>Ilin Heesoo</name><description>12:00</description><styleUrl>#culture.png</styleUrl><Point><coordinates>127.041320,37.517352,0.000000</coordinates></Point></Placemark>
<Placemark><name>Daeheung Baptist Church</name><description>Bible study 13:15, English servc 816-19, Gyeryong Street, 177-36 Oryu-dong</description><styleUrl>#health.png</styleUrl><Point><coordinates>127.405925,36.326555,0.000000</coordinates></Point></Placemark>
<Placemark><name>Onnuri Church</name><description>http://www.onnurienglish.org/our-campuses.htmlSook Myoung Girls&apos; High School91 Dogok-dong, Gangnam-gu        [View in Google maps]Sunday A.M. Worship11:30amMain AuditoriumWednesday Night Service7:30pm3rd Floor, Bldg A</description><styleUrl>#health.png</styleUrl><Point><coordinates>127.053337,37.490730,0.000000</coordinates></Point></Placemark>
<Placemark><name>Daejeon Language Exchange</name><description>3 pm Sunday</description><styleUrl>#other.png</styleUrl><Point><coordinates>127.427502,36.327031,0.000000</coordinates></Point></Placemark>
<Placemark><name>Bus Terminal</name><description></description><styleUrl>#car_services.png</styleUrl><Point><coordinates>128.414490,37.586101,0.000000</coordinates></Point></Placemark>
<Placemark><name>Donenu Samgyopsal</name><description></description><styleUrl>#other.png</styleUrl><Point><coordinates>127.374701,36.351012,0.000000</coordinates></Point></Placemark>
<Placemark><name>KCCC Daegu Sarangbang</name><description></description><styleUrl>#other.png</styleUrl><Point><coordinates>128.625609,35.868936,0.000000</coordinates></Point></Placemark>
<Placemark><name>Jjimjilbang</name><description>5-7000</description><styleUrl>#other.png</styleUrl><Point><coordinates>128.463275,35.857386,0.000000</coordinates></Point></Placemark>
<Placemark><name>Sarang Church (사랑의교회)</name><description>1316-16 Seocho 4(sa)-dong, Seocho-gu, Seoul82-23479-7707http://english.sarang.org/English: 10:00, 12:00, 14:00Dawn: 05:20Wednesday: 19:30Friday: 19:50Sunday: 06:15, 08;00, 10:00, 12:00, 14:00, 16:00</description><styleUrl>#other.png</styleUrl><Point><coordinates>127.023827,37.500851,0.000000</coordinates></Point></Placemark>
<Placemark><name>Not Daejeon Cheongsa Bus Terminal</name><description>2 hours to Incheon. 908 Dunsan 2(i)-dong, Seo-gu</description><styleUrl>#car_services.png</styleUrl><Point><coordinates>127.390649,36.360722,0.000000</coordinates></Point></Placemark>
<Placemark><name>Uam Historical Park</name><description></description><styleUrl>#other.png</styleUrl><Point><coordinates>127.452314,36.352403,0.000000</coordinates></Point></Placemark>
<Placemark><name>Bona Park</name><description>Mobile: +821066444624Home: +827082214624http://www.facebook.com/permalink.php?story_fbid=301491539924249&amp;id=100001902176822http://www.facebook.com/profile.php?id=100001902176822&amp;sk=infoDaegu, South Korea</description><styleUrl>#culture.png</styleUrl><Point><coordinates>128.601440,35.871433,0.000000</coordinates></Point></Placemark>
<Placemark><name>House Grill</name><description></description><styleUrl>#food_drink.png</styleUrl><Point><coordinates>127.354685,36.362471,0.000000</coordinates></Point></Placemark>
<Placemark><name>Jinsung Jo</name><description>Anyang, Gyeonggi-do, South Koreahttp://www.facebook.com/permalink.php?story_fbid=259491217478558&amp;id=100002530447859http://www.facebook.com/profile.php?id=100002530447859&amp;sk=info+82 1071408075jojinsung@nate.com</description><styleUrl>#culture.png</styleUrl><Point><coordinates>126.956818,37.394253,0.000000</coordinates></Point></Placemark>
<Placemark><name>Stadium</name><description>6:20 pm</description><styleUrl>#sport.png</styleUrl><Point><coordinates>128.690274,35.832229,0.000000</coordinates></Point></Placemark>
<Placemark><name>SK Telecom</name><description></description><styleUrl>#education.png</styleUrl><Point><coordinates>127.052933,37.497349,0.000000</coordinates></Point></Placemark>
<Placemark><name>Berkland Baptist Church</name><description>9:30 English service, Daniel Park</description><styleUrl>#health.png</styleUrl><Point><coordinates>126.942295,37.547105,0.000000</coordinates></Point></Placemark>
<Placemark><name>Volunteer Party 하마홒ㅡ</name><description>7 pm</description><styleUrl>#other.png</styleUrl><Point><coordinates>128.582965,35.854785,0.000000</coordinates></Point></Placemark>
<Placemark><name>Joyful Hearts</name><description></description><styleUrl>#food_drink.png</styleUrl><Point><coordinates>127.387891,36.353719,0.000000</coordinates></Point></Placemark>
<Placemark><name>Shuttle to Seongmyung Church</name><description>10:18 am, exit 5</description><styleUrl>#health.png</styleUrl><Point><coordinates>128.515778,35.850515,0.000000</coordinates></Point></Placemark>
<Placemark><name>Not New CCC Church</name><description>36.330440,127.421293</description><styleUrl>#health.png</styleUrl><Point><coordinates>127.421293,36.330440,0.000000</coordinates></Point></Placemark>
<Placemark><name>Meet Ioel</name><description>15:00</description><styleUrl>#culture.png</styleUrl><Point><coordinates>126.977566,37.524601,0.000000</coordinates></Point></Placemark>
<Placemark><name>Myungha Madeline Lee</name><description>http://www.facebook.com/myungha.lee/posts/10150752267340971http://www.facebook.com/myungha.lee/infomyung_ha@hotmail.com</description><styleUrl>#culture.png</styleUrl><Point><coordinates>126.938416,37.565533,0.000000</coordinates></Point></Placemark>
<Placemark><name>Catholic Consolata Missionaries</name><description>Inter-religious dialogue, +821090496676</description><styleUrl>#health.png</styleUrl><Point><coordinates>127.292429,36.362203,0.000000</coordinates></Point></Placemark>
<Placemark><name>Juyoung Noh</name><description>Pusan National Universityhttp://www.facebook.com/permalink.php?story_fbid=10150631875807677&amp;id=510292676http://www.facebook.com/profile.php?id=510292676&amp;sk=info</description><styleUrl>#culture.png</styleUrl><Point><coordinates>129.079605,35.233303,0.000000</coordinates></Point></Placemark>
<Placemark><name>Libella Hotel</name><description></description><styleUrl>#other.png</styleUrl><Point><coordinates>127.338761,36.355281,0.000000</coordinates></Point></Placemark>
<Placemark><name>Chung Gu Middle School</name><description></description><styleUrl>#other.png</styleUrl><Point><coordinates>128.619606,35.868282,0.000000</coordinates></Point></Placemark>
<Placemark><name>Love Motel</name><description>40,000 per night</description><styleUrl>#other.png</styleUrl><Point><coordinates>127.351288,36.358624,0.000000</coordinates></Point></Placemark>
<Placemark><name>Jungah Tonya Park</name><description>48기 변리사http://www.facebook.com/jungah.park/posts/3657515285733http://www.facebook.com/jungah.park?sk=info+82 1094750940jungah317@gmail.comj_park01@umail.ucsb.edujungah317@yonsei.ac.kr</description><styleUrl>#culture.png</styleUrl><Point><coordinates>126.949944,37.546646,0.000000</coordinates></Point></Placemark>
<Placemark><name>Café Bun</name><description></description><styleUrl>#food_drink.png</styleUrl><Point><coordinates>127.357281,36.363358,0.000000</coordinates></Point></Placemark>
<Placemark><name>Flower Store</name><description></description><styleUrl>#other.png</styleUrl><Point><coordinates>128.544189,35.852573,0.000000</coordinates></Point></Placemark>
<Placemark><name>Bus 1127</name><description></description><styleUrl>#car_services.png</styleUrl><Point><coordinates>129.095284,35.283663,0.000000</coordinates></Point></Placemark>
<Placemark><name>Hyunhee Chung</name><description>Hanyang Universityhttp://www.facebook.com/profile.php?id=100002665628636&amp;sk=infonimphworld@hanmail.netnimphworld@nate.com</description><styleUrl>#culture.png</styleUrl><Point><coordinates>127.045380,37.555954,0.000000</coordinates></Point></Placemark>
<Placemark><name>신한전자중고마트 (Sinhanjeonjajunggo Mart)</name><description>name:en: Sinhanjeonjajunggo Mart, name:ko_rm: Sinhanjeonjajunggomateu, ncat: 마트, shop: supermarket, source: http://kr.open.gugi.yahoo.com</description><styleUrl>#bank.png</styleUrl><Point><coordinates>128.959975,35.093973,0.000000</coordinates></Point></Placemark>
<Placemark><name>In-young Park</name><description>Samsung, Seoulhttp://www.facebook.com/inyoungp1/posts/3101353966916http://www.facebook.com/inyoungp1?sk=info+82 1046453715assa606@naver.com</description><styleUrl>#culture.png</styleUrl><Point><coordinates>127.026909,37.496628,0.000000</coordinates></Point></Placemark>
<Placemark><name>Grace Choi</name><description>1 128 2, room 101</description><styleUrl>#culture.png</styleUrl><Point><coordinates>127.355159,36.363519,0.000000</coordinates></Point></Placemark>
<Placemark><name>Onnuri Church</name><description>241-96 Seobinggo-dong, Yongsan-gu    Sunday P.M. Worship4:00pmMain Sanctuary</description><styleUrl>#health.png</styleUrl><Point><coordinates>126.985344,37.518246,0.000000</coordinates></Point></Placemark>
<Placemark><name>동대구역</name><description>name:en: Dongdaegu Station, name:ko_rm: Dongdaeguyeok, railway: station</description><styleUrl>#car_services.png</styleUrl><Point><coordinates>128.627401,35.877492,0.000000</coordinates></Point></Placemark>
<Placemark><name>Transfer</name><description></description><styleUrl>#car_services.png</styleUrl><Point><coordinates>128.593455,35.864441,0.000000</coordinates></Point></Placemark>
<Placemark><name>Apple Center</name><description></description><styleUrl>#other.png</styleUrl><Point><coordinates>128.588450,35.870351,0.000000</coordinates></Point></Placemark>
<Placemark><name>Daejeon Station</name><description></description><styleUrl>#car_services.png</styleUrl><Point><coordinates>127.433801,36.331975,0.000000</coordinates></Point></Placemark>
<Placemark><name>Costco</name><description></description><styleUrl>#food_drink.png</styleUrl><Point><coordinates>127.403282,36.323912,0.000000</coordinates></Point></Placemark>
<Placemark><name>Pilsu Choi</name><description></description><styleUrl>#culture.png</styleUrl><Point><coordinates>125.755278,39.025000,0.000000</coordinates></Point></Placemark>
<Placemark><name>WiFi</name><description></description><styleUrl>#other.png</styleUrl><Point><coordinates>126.981068,37.520854,0.000000</coordinates></Point></Placemark>
<Placemark><name>Meet Christensen</name><description></description><styleUrl>#culture.png</styleUrl><Point><coordinates>126.991380,37.570627,0.000000</coordinates></Point></Placemark>
<Placemark><name>Legend Hotel</name><description>169,000 per night</description><styleUrl>#other.png</styleUrl><Point><coordinates>127.345823,36.353398,0.000000</coordinates></Point></Placemark>
<Placemark><name>N13 Taewulgwan</name><description></description><styleUrl>#other.png</styleUrl><Point><coordinates>127.359876,36.373167,0.000000</coordinates></Point></Placemark>
<Placemark><name>Hukou Waterfall</name><description></description><styleUrl>#other.png</styleUrl><Point><coordinates>110.454712,36.232458,0.000000</coordinates></Point></Placemark>
<Placemark><name>Sincheon Station</name><description></description><styleUrl>#car_services.png</styleUrl><Point><coordinates>128.617423,35.874536,0.000000</coordinates></Point></Placemark>
<Placemark><name>Not St John&apos;s Anglican Church</name><description>10:30 am, 0164349919</description><styleUrl>#health.png</styleUrl><Point><coordinates>127.366600,36.347445,0.000000</coordinates></Point></Placemark>
<Placemark><name>Joyful Hearts Mr Pizza</name><description></description><styleUrl>#food_drink.png</styleUrl><Point><coordinates>127.345035,36.361607,0.000000</coordinates></Point></Placemark>
<Placemark><name>Seoul Station</name><description></description><styleUrl>#car_services.png</styleUrl><Point><coordinates>126.971100,37.553508,0.000000</coordinates></Point></Placemark>
<Placemark><name>Casablanca Sandwicherie</name><description>1 pm with Ioel</description><styleUrl>#food_drink.png</styleUrl><Point><coordinates>126.986934,37.541661,0.000000</coordinates></Point></Placemark>
<Placemark><name>Youngjeon Church</name><description>13:30-14:30, last Sunday of month 14:00-15:00</description><styleUrl>#health.png</styleUrl><Point><coordinates>127.427856,36.356636,0.000000</coordinates></Point></Placemark>
<Placemark><name>NPC Itaewon Campus</name><description>Sunday Service 4 pm</description><styleUrl>#health.png</styleUrl><Point><coordinates>126.999184,37.528248,0.000000</coordinates></Point></Placemark>
<Placemark><name>Holy Cross Coffee</name><description>6F. Chuck&apos;s friend</description><styleUrl>#food_drink.png</styleUrl><Point><coordinates>127.377466,36.351869,0.000000</coordinates></Point></Placemark>
<Placemark><name>Inho Yeo-Bikash</name><description>Jeonju-si, Jeollabuk-do, Koreahttp://www.facebook.com/yeobikash/posts/329317690464019http://www.facebook.com/yeobikash?sk=info+82 1034342485+977 9808781006engelyr (NateOn)engelyr@naver.comengelyr@gmail.com</description><styleUrl>#culture.png</styleUrl><Point><coordinates>127.147949,35.824223,0.000000</coordinates></Point></Placemark>
<Placemark><name>Near Itaewon</name><description>350,000 KRW/monthhttp://seoul.craigslist.co.kr/roo/2914007361.html250,000+ KRW/monthhttp://seoul.craigslist.co.kr/roo/2909719010.html</description><styleUrl>#other.png</styleUrl><Point><coordinates>126.992050,37.534122,0.000000</coordinates></Point></Placemark>
<Placemark><name>Jihyun Jenny Chung</name><description>Seoul, South Koreahttp://www.facebook.com/jihyun.chung?sk=info</description><styleUrl>#culture.png</styleUrl><Point><coordinates>126.977966,37.567032,0.000000</coordinates></Point></Placemark>
<Placemark><name>Hiking Shop</name><description></description><styleUrl>#other.png</styleUrl><Point><coordinates>128.551586,35.855722,0.000000</coordinates></Point></Placemark>
<Placemark><name>Songmyung Church</name><description>11 am</description><styleUrl>#health.png</styleUrl><Point><coordinates>128.523582,35.864421,0.000000</coordinates></Point></Placemark>
<Placemark><name>Subra Mir</name><description>http://www.facebook.com/permalink.php?story_fbid=10100714221292090&amp;id=48902941http://www.facebook.com/profile.php?id=48902941&amp;sk=infosubramir@yahoo.co.uk</description><styleUrl>#culture.png</styleUrl><Point><coordinates>126.977966,37.566536,0.000000</coordinates></Point></Placemark>
<Placemark><name>교보문고 Kyobo</name><description></description><styleUrl>#shop.png</styleUrl><Point><coordinates>128.594840,35.870546,0.000000</coordinates></Point></Placemark>
<Placemark><name>Not Chun Sung Methodist</name><description></description><styleUrl>#health.png</styleUrl><Point><coordinates>127.390186,36.344577,0.000000</coordinates></Point></Placemark>
<Placemark><name>Bona Park</name><description>Mobile: +821066444624Home: +827082214624http://www.facebook.com/permalink.php?story_fbid=301491539924249&amp;id=100001902176822http://www.facebook.com/profile.php?id=100001902176822&amp;sk=infoDaegu, South Korea</description><styleUrl>#culture.png</styleUrl><Point><coordinates>128.601440,35.871433,0.000000</coordinates></Point></Placemark>
<Placemark><name>Auditorium-Wolpyeong</name><description>9:40, 10:40, 11:40, 12:40, 13:40, 14:40, 15:40, 16:40, 18:00</description><styleUrl>#car_services.png</styleUrl><Point><coordinates>127.365288,36.372821,0.000000</coordinates></Point></Placemark>
<Placemark><name>Yeosu Expo 2012</name><description></description><styleUrl>#entertainment.png</styleUrl><Point><coordinates>127.663418,34.760265,0.000000</coordinates></Point></Placemark>
<Placemark><name>Sooyeon Sinchon Exit 3</name><description>2:30 pm</description><styleUrl>#car_services.png</styleUrl><Point><coordinates>126.937250,37.555718,0.000000</coordinates></Point></Placemark>
<Placemark><name>UBase</name><description>UBASE DaeJeon 042-535-9230 10am~7pm Sat.~1pm #207, 80-1 DoonSan Electronic Town, TanBang-dong, Seo-ku, Daejeon - YongMoon Subway Station Exit 6 then turn Left at the 2nd block and is on the next block to your Left into Electronics Land Building (JeonJa Landu)</description><styleUrl>#shop.png</styleUrl><Point><coordinates>127.394836,36.339217,0.000000</coordinates></Point></Placemark>
<Placemark><name>Ice Fishing</name><description></description><styleUrl>#other.png</styleUrl><Point><coordinates>127.661171,38.004942,0.000000</coordinates></Point></Placemark>
<Placemark><name>Dongshin Church</name><description>14</description><styleUrl>#health.png</styleUrl><Point><coordinates>128.650737,35.854795,0.000000</coordinates></Point></Placemark>
<Placemark><name>N1 Lab</name><description></description><styleUrl>#other.png</styleUrl><Point><coordinates>127.366501,36.373704,0.000000</coordinates></Point></Placemark>
<Placemark><name>Chun Sung Methodist</name><description>72-1 Tanbang-dong, Seo-gu, 10:00. Stuart Burmeister</description><styleUrl>#health.png</styleUrl><Point><coordinates>127.395986,36.341941,0.000000</coordinates></Point></Placemark>
<Placemark><name>CNKD Guesthouse</name><description>22000 won per night</description><styleUrl>#residence.png</styleUrl><Point><coordinates>128.592044,35.869263,0.000000</coordinates></Point></Placemark>
<Placemark><name>CCC Jaeil Church</name><description></description><styleUrl>#health.png</styleUrl><Point><coordinates>127.430227,36.331491,0.000000</coordinates></Point></Placemark>
<Placemark><name>Tunnel Number 4</name><description></description><styleUrl>#other.png</styleUrl><Point><coordinates>128.111445,38.319709,0.000000</coordinates></Point></Placemark>
<Placemark><name>Busan KTX</name><description></description><styleUrl>#car_services.png</styleUrl><Point><coordinates>129.043247,35.121469,0.000000</coordinates></Point></Placemark>
<Placemark><name>Inho Yeo-Bikash</name><description>Jeonju-si, Jeollabuk-do, Koreahttp://www.facebook.com/yeobikash/posts/329317690464019http://www.facebook.com/yeobikash?sk=info+82 1034342485+977 9808781006engelyr (NateOn)engelyr@naver.comengelyr@gmail.com</description><styleUrl>#culture.png</styleUrl><Point><coordinates>127.147949,35.824223,0.000000</coordinates></Point></Placemark>
