<Placemark><name>Gran: Bridlington, UK</name><description></description><styleUrl>#culture.png</styleUrl><Point><coordinates>-0.177080,54.094044,0.000000</coordinates></Point></Placemark>
<Placemark><name>Lancaster University</name><description></description><styleUrl>#education.png</styleUrl><Point><coordinates>-2.785973,54.010491,0.000000</coordinates></Point></Placemark>
<Placemark><name>Mother 媽媽: York, UK</name><description></description><styleUrl>#culture.png</styleUrl><Point><coordinates>-1.115306,53.981412,0.000000</coordinates></Point></Placemark>
<Placemark><name>Father: Sheffield, UK</name><description></description><styleUrl>#culture.png</styleUrl><Point><coordinates>-1.476851,53.327553,0.000000</coordinates></Point></Placemark>
<Placemark><name>Wuhan</name><description></description><styleUrl>#other.png</styleUrl><Point><coordinates>114.361033,30.830463,0.000000</coordinates></Point></Placemark>
<Placemark><name>School</name><description></description><styleUrl>#education.png</styleUrl><Point><coordinates>6.172160,46.340316,0.000000</coordinates></Point></Placemark>
<Placemark><name>Born 出生: Geneva, Switzerland</name><description></description><styleUrl>#residence.png</styleUrl><Point><coordinates>6.067142,46.228887,0.000000</coordinates></Point></Placemark>
<Placemark><name>University of California Santa Barbara</name><description></description><styleUrl>#education.png</styleUrl><Point><coordinates>-119.854915,34.415126,0.000000</coordinates></Point></Placemark>
<Placemark><name>House 家: France</name><description></description><styleUrl>#residence.png</styleUrl><Point><coordinates>6.030410,46.295923,0.000000</coordinates></Point></Placemark>
<Placemark><name>Birkenshaw -&gt; Burkimsher</name><description></description><styleUrl>#other.png</styleUrl><Point><coordinates>-1.695124,53.749659,0.000000</coordinates></Point></Placemark>
<Placemark><name>Adelaide Island</name><description></description><styleUrl>#other.png</styleUrl><Point><coordinates>-68.400161,-67.049271,0.000000</coordinates></Point></Placemark>
