<Placemark><name>Pizza &amp; Games Night</name><description>2013-03-11 19:00, Vijzelstraat 66</description><styleUrl>#culture.png</styleUrl><Point><coordinates>4.891905,52.363571,0.000000</coordinates></Point></Placemark>
<Placemark><name>Expat Medical Centre</name><description>112 Bloemgracht</description><styleUrl>#other.png</styleUrl><Point><coordinates>4.880022,52.374829,0.000000</coordinates></Point></Placemark>
<Placemark><name>Huisarts aan de Herengracht</name><description>08:00-17:00, 318 Herengracht</description><styleUrl>#other.png</styleUrl><Point><coordinates>4.886524,52.370044,0.000000</coordinates></Point></Placemark>
<Placemark><name>Atomium</name><description></description><styleUrl>#other.png</styleUrl><Point><coordinates>4.341577,50.895203,0.000000</coordinates></Point></Placemark>
<Placemark><name>LIDL</name><description></description><styleUrl>#food_drink.png</styleUrl><Point><coordinates>4.876524,52.363853,0.000000</coordinates></Point></Placemark>
<Placemark><name>Eurolines</name><description>Julianaplein 5, Rokin 38A</description><styleUrl>#car_services.png</styleUrl><Point><coordinates>4.892587,52.371303,0.000000</coordinates></Point></Placemark>
<Placemark><name>HAPK</name><description>Westermarkt 2</description><styleUrl>#other.png</styleUrl><Point><coordinates>4.884829,52.374988,0.000000</coordinates></Point></Placemark>
<Placemark><name>Notre Dame de la Chapelle</name><description></description><styleUrl>#other.png</styleUrl><Point><coordinates>4.351275,50.841619,0.000000</coordinates></Point></Placemark>
<Placemark><name>Pizza Night</name><description>7:30 pm Tuesdays</description><styleUrl>#food_drink.png</styleUrl><Point><coordinates>2.306875,48.862244,0.000000</coordinates></Point></Placemark>
<Placemark><name>Kas Bank</name><description></description><styleUrl>#bank.png</styleUrl><Point><coordinates>4.889201,52.372832,0.000000</coordinates></Point></Placemark>
<Placemark><name>Vineyard Church</name><description>Sunday 10:30-12:30, Keizersgracht 102</description><styleUrl>#health.png</styleUrl><Point><coordinates>4.887203,52.377487,0.000000</coordinates></Point></Placemark>
<Placemark><name>C3 Church</name><description>Paasheuvelweg 24. Sunday 10:30, 18:00</description><styleUrl>#health.png</styleUrl><Point><coordinates>4.951891,52.296553,0.000000</coordinates></Point></Placemark>
<Placemark><name>Hillsong Connect Group</name><description>Wednesday 19:30, Rozenboomsteeg 8 </description><styleUrl>#other.png</styleUrl><Point><coordinates>4.890682,52.369245,0.000000</coordinates></Point></Placemark>
<Placemark><name>The Well</name><description>17:30, Rue Haute 116, 1000 Brussels</description><styleUrl>#health.png</styleUrl><Point><coordinates>4.350949,50.839730,0.000000</coordinates></Point></Placemark>
<Placemark><name>iPhone Guy</name><description>43</description><styleUrl>#other.png</styleUrl><Point><coordinates>2.315871,48.874457,0.000000</coordinates></Point></Placemark>
<Placemark><name>Mia Snow</name><description>33 Elandsgracht, Amsterdam. +31612045781, prettygrl_123@hotmail.com, 1016Tm</description><styleUrl>#residence.png</styleUrl><Point><coordinates>4.881622,52.369624,0.000000</coordinates></Point></Placemark>
<Placemark><name>Rue du Cardinal Mercier</name><description>11:10</description><styleUrl>#other.png</styleUrl><Point><coordinates>4.357622,50.846397,0.000000</coordinates></Point></Placemark>
<Placemark><name>Gall &amp; Gall Supermarket</name><description></description><styleUrl>#food_drink.png</styleUrl><Point><coordinates>4.890307,52.372605,0.000000</coordinates></Point></Placemark>
<Placemark><name>Troyes</name><description></description><styleUrl>#other.png</styleUrl><Point><coordinates>4.064804,48.296848,0.000000</coordinates></Point></Placemark>
<Placemark><name>Crossroads Resurrection Seminar</name><description>10/3 12:30-14:00, Amstelveen College, Startbaan 12, Amstelveen, room 127</description><styleUrl>#health.png</styleUrl><Point><coordinates>4.849008,52.287194,0.000000</coordinates></Point></Placemark>
<Placemark><name>Coffee Company</name><description></description><styleUrl>#food_drink.png</styleUrl><Point><coordinates>4.883289,52.370275,0.000000</coordinates></Point></Placemark>
<Placemark><name>Atal MDC</name><description>Jan Tooropstraat 138</description><styleUrl>#other.png</styleUrl><Point><coordinates>4.837448,52.369075,0.000000</coordinates></Point></Placemark>
<Placemark><name>Atal MDC</name><description>Willemsparkweg 23</description><styleUrl>#other.png</styleUrl><Point><coordinates>4.875801,52.357289,0.000000</coordinates></Point></Placemark>
<Placemark><name>Chinese Embassy</name><description>117 Avenue des Champs-Elysées. 9:00-15:30 (16:30 collect) M-F</description><styleUrl>#other.png</styleUrl><Point><coordinates>2.298925,48.872502,0.000000</coordinates></Point></Placemark>
<Placemark><name>Leidseplein</name><description></description><styleUrl>#other.png</styleUrl><Point><coordinates>4.882632,52.364081,0.000000</coordinates></Point></Placemark>
<Placemark><name>Café Kafka</name><description>7 pm UNO</description><styleUrl>#other.png</styleUrl><Point><coordinates>4.348388,50.849011,0.000000</coordinates></Point></Placemark>
<Placemark><name>Korean Campus Mission International</name><description>Sunday 12:00. Van Boshuizenstraat 560</description><styleUrl>#health.png</styleUrl><Point><coordinates>4.874946,52.325184,0.000000</coordinates></Point></Placemark>
<Placemark><name>Gare Centrale</name><description></description><styleUrl>#other.png</styleUrl><Point><coordinates>4.357339,50.845508,0.000000</coordinates></Point></Placemark>
<Placemark><name>Dupleix</name><description>9 pm</description><styleUrl>#other.png</styleUrl><Point><coordinates>2.293908,48.850466,0.000000</coordinates></Point></Placemark>
<Placemark><name>English Reformed Church</name><description>10:30 Sunday</description><styleUrl>#health.png</styleUrl><Point><coordinates>4.889970,52.369221,0.000000</coordinates></Point></Placemark>
<Placemark><name>WiFi, Bench, and Sunshine</name><description></description><styleUrl>#other.png</styleUrl><Point><coordinates>4.871751,52.392465,0.000000</coordinates></Point></Placemark>
<Placemark><name>Eurolines</name><description></description><styleUrl>#car_services.png</styleUrl><Point><coordinates>4.359426,50.860655,0.000000</coordinates></Point></Placemark>
<Placemark><name>Central Library</name><description></description><styleUrl>#other.png</styleUrl><Point><coordinates>4.908363,52.375915,0.000000</coordinates></Point></Placemark>
<Placemark><name>Korean Supermarket</name><description></description><styleUrl>#food_drink.png</styleUrl><Point><coordinates>2.334748,48.864976,0.000000</coordinates></Point></Placemark>
<Placemark><name>The Well</name><description>Imagin&apos;air Art Café, 11 am</description><styleUrl>#health.png</styleUrl><Point><coordinates>4.366318,50.833354,0.000000</coordinates></Point></Placemark>
<Placemark><name>Darai Korean Restaurant</name><description></description><styleUrl>#food_drink.png</styleUrl><Point><coordinates>2.295001,48.849662,0.000000</coordinates></Point></Placemark>
<Placemark><name>IDBus Bercy</name><description>48 bis Boulevard de Bercy</description><styleUrl>#car_services.png</styleUrl><Point><coordinates>2.380514,48.840978,0.000000</coordinates></Point></Placemark>
<Placemark><name>CS Meetup</name><description>2/3, 21:30-03:00. Prinsenstraat 30</description><styleUrl>#culture.png</styleUrl><Point><coordinates>4.886822,52.378062,0.000000</coordinates></Point></Placemark>
<Placemark><name>Post Office</name><description></description><styleUrl>#other.png</styleUrl><Point><coordinates>4.888645,52.373070,0.000000</coordinates></Point></Placemark>
<Placemark><name>Oosteindekliniek</name><description>106, 110 P. Calandloon</description><styleUrl>#other.png</styleUrl><Point><coordinates>4.796859,52.351572,0.000000</coordinates></Point></Placemark>
<Placemark><name>Bus 54 to Fernand Cocq</name><description>10:49</description><styleUrl>#other.png</styleUrl><Point><coordinates>4.366452,50.832961,0.000000</coordinates></Point></Placemark>
<Placemark><name>4 Tesselschadestraat</name><description></description><styleUrl>#other.png</styleUrl><Point><coordinates>4.879885,52.362288,0.000000</coordinates></Point></Placemark>
<Placemark><name>Nicolas van Nuijs</name><description>De Haveskerckelaan 35. +32473474227</description><styleUrl>#other.png</styleUrl><Point><coordinates>4.321861,50.806166,0.000000</coordinates></Point></Placemark>
<Placemark><name>Tram 82/32 to St Denis</name><description>Tram 32 after 8 pm</description><styleUrl>#other.png</styleUrl><Point><coordinates>4.317847,50.809883,0.000000</coordinates></Point></Placemark>
<Placemark><name>SLUG</name><description>1e schinkelstraat 14 </description><styleUrl>#culture.png</styleUrl><Point><coordinates>4.854760,52.353995,0.000000</coordinates></Point></Placemark>
<Placemark><name>Amstel Station</name><description>Check In 13:00</description><styleUrl>#car_services.png</styleUrl><Point><coordinates>4.917995,52.346657,0.000000</coordinates></Point></Placemark>
<Placemark><name>Onnuri Korean Church</name><description>Verrijn Stuartweg, Diemen. Sunday 11:00</description><styleUrl>#health.png</styleUrl><Point><coordinates>4.966086,52.332291,0.000000</coordinates></Point></Placemark>
<Placemark><name>Housechurch</name><description>Spinnekop 47, Tuesday 19:30</description><styleUrl>#health.png</styleUrl><Point><coordinates>4.891055,52.417917,0.000000</coordinates></Point></Placemark>
<Placemark><name>Ping Pong Party</name><description>21:00. 301 Overtoom</description><styleUrl>#culture.png</styleUrl><Point><coordinates>4.866408,52.359946,0.000000</coordinates></Point></Placemark>
<Placemark><name>Sens</name><description></description><styleUrl>#other.png</styleUrl><Point><coordinates>3.261527,48.238479,0.000000</coordinates></Point></Placemark>
<Placemark><name>Recycled Bike Rental</name><description>5&euro; per day. Spuistraat 84A</description><styleUrl>#car_services.png</styleUrl><Point><coordinates>4.892199,52.375820,0.000000</coordinates></Point></Placemark>
<Placemark><name>Bus 54 towards Trone</name><description>10:32</description><styleUrl>#other.png</styleUrl><Point><coordinates>4.320846,50.809155,0.000000</coordinates></Point></Placemark>
<Placemark><name>Danielle Sim</name><description></description><styleUrl>#other.png</styleUrl><Point><coordinates>4.947066,52.355832,0.000000</coordinates></Point></Placemark>
<Placemark><name>Stephen Lloyd</name><description>8 Rue Linné, +33627935135</description><styleUrl>#culture.png</styleUrl><Point><coordinates>2.355057,48.844287,0.000000</coordinates></Point></Placemark>
<Placemark><name>Albert Cuyp Market StroopwaffelsStroopwaffels</name><description>9:00-17:00</description><styleUrl>#other.png</styleUrl><Point><coordinates>4.893232,52.355478,0.000000</coordinates></Point></Placemark>
<Placemark><name>GG&amp;GD</name><description>Weesperplein 1, Monday to Friday from 8.30 to 12.00 a.m. and 1.30 p.m. to 5 p.m. Call for the appointment first (service in English and Spanish); phone: 020-555 5822.</description><styleUrl>#other.png</styleUrl><Point><coordinates>4.908282,52.361231,0.000000</coordinates></Point></Placemark>
<Placemark><name>Brussels-Midi</name><description></description><styleUrl>#other.png</styleUrl><Point><coordinates>4.335977,50.835651,0.000000</coordinates></Point></Placemark>
<Placemark><name>Basilisk</name><description></description><styleUrl>#other.png</styleUrl><Point><coordinates>4.316899,50.867216,0.000000</coordinates></Point></Placemark>
<Placemark><name>AIDS Healthcare Foundation</name><description>Jodenbreestraat 158, Thursday, Friday, Saturday 1 P.M. &ndash; 7 P.M.; Sunday 1 P.M. &ndash; 6 P.M.; teleph.+31 20 620 62 61</description><styleUrl>#other.png</styleUrl><Point><coordinates>4.903448,52.368810,0.000000</coordinates></Point></Placemark>
<Placemark><name>Hillsong Amsterdam</name><description>Sunday 10:00, 12:00, 16:30. Panama, Oostelijke Handelskade 4, 1019BM, Amsterdam</description><styleUrl>#health.png</styleUrl><Point><coordinates>4.930012,52.375071,0.000000</coordinates></Point></Placemark>
<Placemark><name>A.fusion Bubble Tea</name><description></description><styleUrl>#food_drink.png</styleUrl><Point><coordinates>4.900712,52.372767,0.000000</coordinates></Point></Placemark>
<Placemark><name>Eevon&apos;s mum &amp; dad&apos;s house</name><description></description><styleUrl>#other.png</styleUrl><Point><coordinates>102.942020,1.842440,0.000000</coordinates></Point></Placemark>
<Placemark><name>Train to Forest-Est</name><description></description><styleUrl>#other.png</styleUrl><Point><coordinates>4.320967,50.809771,0.000000</coordinates></Point></Placemark>
<Placemark><name>Korean Reformed Church</name><description>De Ruyschlaan 147. Sunday worship 11:30, young adults 13:15, Tuesday Bible study 20:00, Area Worship every other Friday 20:00</description><styleUrl>#health.png</styleUrl><Point><coordinates>4.860208,52.306761,0.000000</coordinates></Point></Placemark>
<Placemark><name>Gare de l&apos;Est</name><description></description><styleUrl>#car_services.png</styleUrl><Point><coordinates>2.358175,48.876299,0.000000</coordinates></Point></Placemark>
<Placemark><name>Crossroads Ministry Centre</name><description>Prayer 1/3, 4/3, 11/3 19:30-21:30</description><styleUrl>#health.png</styleUrl><Point><coordinates>4.862153,52.302238,0.000000</coordinates></Point></Placemark>
<Placemark><name>Sint Lucas Hospital</name><description></description><styleUrl>#other.png</styleUrl><Point><coordinates>4.839838,52.371427,0.000000</coordinates></Point></Placemark>
<Placemark><name>North Market</name><description></description><styleUrl>#other.png</styleUrl><Point><coordinates>4.888040,52.380322,0.000000</coordinates></Point></Placemark>
