<Placemark><name>Motasem Hamadan</name><description>141, First floor, Loft City building, near Mediacity UK tram stop, M50 3TZ Salford Quays</description><styleUrl>#culture.png</styleUrl><Point><coordinates>-2.291272,53.473479,0.000000</coordinates></Point></Placemark>
<Placemark><name>Apple Store Trafford Centre</name><description></description><styleUrl>#other.png</styleUrl><Point><coordinates>-2.348634,53.466419,0.000000</coordinates></Point></Placemark>
<Placemark><name>Lonsdale</name><description></description><styleUrl>#residence.png</styleUrl><Point><coordinates>-2.789654,54.005045,0.000000</coordinates></Point></Placemark>
<Placemark><name>Josh Ward</name><description>Hillhead, 07568311486</description><styleUrl>#culture.png</styleUrl><Point><coordinates>-4.287613,55.874844,0.000000</coordinates></Point></Placemark>
<Placemark><name>Graham Stockton</name><description>6 Park Range Manchester M14 5HQ</description><styleUrl>#culture.png</styleUrl><Point><coordinates>-2.217736,53.453353,0.000000</coordinates></Point></Placemark>
<Placemark><name>9 Adelphi Street</name><description></description><styleUrl>#residence.png</styleUrl><Point><coordinates>-2.789220,54.039080,0.000000</coordinates></Point></Placemark>
<Placemark><name>Cassie Zong</name><description></description><styleUrl>#culture.png</styleUrl><Point><coordinates>-3.180472,55.940255,0.000000</coordinates></Point></Placemark>
<Placemark><name>The Garage</name><description>490 Sauciehall Street</description><styleUrl>#entertainment.png</styleUrl><Point><coordinates>-4.268665,55.866255,0.000000</coordinates></Point></Placemark>
<Placemark><name>Kim&apos;s Mini Meals</name><description></description><styleUrl>#food_drink.png</styleUrl><Point><coordinates>-3.184825,55.943490,0.000000</coordinates></Point></Placemark>
<Placemark><name>Beverly Minster</name><description></description><styleUrl>#health.png</styleUrl><Point><coordinates>-0.424530,53.839157,0.000000</coordinates></Point></Placemark>
<Placemark><name>Sedbergh</name><description></description><styleUrl>#other.png</styleUrl><Point><coordinates>-2.527899,54.323382,0.000000</coordinates></Point></Placemark>
<Placemark><name>Glasgow</name><description></description><styleUrl>#other.png</styleUrl><Point><coordinates>-4.257603,55.860656,0.000000</coordinates></Point></Placemark>
<Placemark><name>Chinatown Manchester</name><description></description><styleUrl>#food_drink.png</styleUrl><Point><coordinates>-2.239852,53.478386,0.000000</coordinates></Point></Placemark>
<Placemark><name>Lloyds</name><description>42-46 Market Street, 9-6 MTuWF, 9-7 Thurs 9-5 Sat, closed Sunday</description><styleUrl>#bank.png</styleUrl><Point><coordinates>-2.242090,53.482566,0.000000</coordinates></Point></Placemark>
<Placemark><name>Edinburgh Castle</name><description></description><styleUrl>#other.png</styleUrl><Point><coordinates>-3.200854,55.948719,0.000000</coordinates></Point></Placemark>
<Placemark><name>River</name><description></description><styleUrl>#other.png</styleUrl><Point><coordinates>-2.919079,54.381189,0.000000</coordinates></Point></Placemark>
<Placemark><name>Compass at 12:00</name><description></description><styleUrl>#other.png</styleUrl><Point><coordinates>-3.191076,55.942514,0.000000</coordinates></Point></Placemark>
<Placemark><name>Motasem lunch</name><description>Revolution 11 Peter Street 13:00</description><styleUrl>#food_drink.png</styleUrl><Point><coordinates>-2.249000,53.478324,0.000000</coordinates></Point></Placemark>
<Placemark><name>Glen Brittle, Fairy Pools</name><description></description><styleUrl>#other.png</styleUrl><Point><coordinates>-6.289107,57.231543,0.000000</coordinates></Point></Placemark>
<Placemark><name>Chinese Visa Application</name><description>75 Mosley Street, Manchester M2 3HR 9:00-9:30</description><styleUrl>#other.png</styleUrl><Point><coordinates>-2.241335,53.479280,0.000000</coordinates></Point></Placemark>
<Placemark><name>Shuana</name><description></description><styleUrl>#other.png</styleUrl><Point><coordinates>114.905170,25.837679,0.000000</coordinates></Point></Placemark>
<Placemark><name>Salford Crescent</name><description>17:55</description><styleUrl>#other.png</styleUrl><Point><coordinates>-2.276082,53.485510,0.000000</coordinates></Point></Placemark>
<Placemark><name>Bournemouth</name><description></description><styleUrl>#other.png</styleUrl><Point><coordinates>-1.886581,50.720448,0.000000</coordinates></Point></Placemark>
<Placemark><name>Globe Café</name><description>65 High Street</description><styleUrl>#other.png</styleUrl><Point><coordinates>-3.185669,55.950477,0.000000</coordinates></Point></Placemark>
<Placemark><name>Ellel Grange</name><description></description><styleUrl>#culture.png</styleUrl><Point><coordinates>-2.792918,53.977515,0.000000</coordinates></Point></Placemark>
<Placemark><name>The Lake</name><description></description><styleUrl>#other.png</styleUrl><Point><coordinates>-2.761061,53.945218,0.000000</coordinates></Point></Placemark>
<Placemark><name>Vue Omni</name><description></description><styleUrl>#entertainment.png</styleUrl><Point><coordinates>-3.186568,55.955441,0.000000</coordinates></Point></Placemark>
<Placemark><name>Monarch hotel</name><description></description><styleUrl>#other.png</styleUrl><Point><coordinates>-0.197518,54.078955,0.000000</coordinates></Point></Placemark>
<Placemark><name>Coach Terminal</name><description></description><styleUrl>#car_services.png</styleUrl><Point><coordinates>-3.193134,55.954288,0.000000</coordinates></Point></Placemark>
<Placemark><name>National Museum</name><description></description><styleUrl>#other.png</styleUrl><Point><coordinates>-3.190848,55.947088,0.000000</coordinates></Point></Placemark>
<Placemark><name>Wallings Ice Cream</name><description>10 am - 5 pm Monday-Sunday</description><styleUrl>#other.png</styleUrl><Point><coordinates>-2.808708,53.950944,0.000000</coordinates></Point></Placemark>
<Placemark><name>Internet Café</name><description></description><styleUrl>#other.png</styleUrl><Point><coordinates>-2.239521,53.477159,0.000000</coordinates></Point></Placemark>
<Placemark><name>Forrest Hills</name><description></description><styleUrl>#other.png</styleUrl><Point><coordinates>-2.770556,54.007670,0.000000</coordinates></Point></Placemark>
<Placemark><name>Interhealth</name><description>63-67 Newington Causeway, SE1 6BD</description><styleUrl>#other.png</styleUrl><Point><coordinates>-0.098210,51.497963,0.000000</coordinates></Point></Placemark>
<Placemark><name>Liverpool Passport Office</name><description>101 Old Hall Street, Liverpool L3 9BD</description><styleUrl>#other.png</styleUrl><Point><coordinates>-2.996558,53.411070,0.000000</coordinates></Point></Placemark>
<Placemark><name>Moray House</name><description></description><styleUrl>#other.png</styleUrl><Point><coordinates>-3.180885,55.950659,0.000000</coordinates></Point></Placemark>
<Placemark><name>London Victoria</name><description></description><styleUrl>#car_services.png</styleUrl><Point><coordinates>-0.143773,51.496458,0.000000</coordinates></Point></Placemark>
<Placemark><name>Paco Ouyang</name><description></description><styleUrl>#culture.png</styleUrl><Point><coordinates>-3.179257,55.945920,0.000000</coordinates></Point></Placemark>
<Placemark><name>Manchester Oxford Road</name><description>16:49, 17:18, 17:49</description><styleUrl>#car_services.png</styleUrl><Point><coordinates>-2.242045,53.474464,0.000000</coordinates></Point></Placemark>
<Placemark><name>Bianca</name><description>42 Fountains Crescent</description><styleUrl>#other.png</styleUrl><Point><coordinates>-0.121916,51.637909,0.000000</coordinates></Point></Placemark>
<Placemark><name>Windermere</name><description></description><styleUrl>#other.png</styleUrl><Point><coordinates>-2.903099,54.379936,0.000000</coordinates></Point></Placemark>
<Placemark><name>Piccadilly</name><description>10 am at Costa with Motasem</description><styleUrl>#car_services.png</styleUrl><Point><coordinates>-2.231184,53.477591,0.000000</coordinates></Point></Placemark>
<Placemark><name>Apple Store Covent Garden</name><description></description><styleUrl>#other.png</styleUrl><Point><coordinates>-0.123739,51.511694,0.000000</coordinates></Point></Placemark>
<Placemark><name>Jessica Woodfin</name><description>80 Newsham Rd</description><styleUrl>#culture.png</styleUrl><Point><coordinates>-2.792594,54.036445,0.000000</coordinates></Point></Placemark>
<Placemark><name>Train</name><description>St Margarets 14:42-15:20 to Hertford East</description><styleUrl>#other.png</styleUrl><Point><coordinates>-0.082474,51.517370,0.000000</coordinates></Point></Placemark>
<Placemark><name>Dzung, Hsin-Yin, Karolina, Anneka</name><description>44 Hope Street</description><styleUrl>#culture.png</styleUrl><Point><coordinates>-2.792227,54.043481,0.000000</coordinates></Point></Placemark>
<Placemark><name>Monica Li</name><description>25 Wellington Rd</description><styleUrl>#culture.png</styleUrl><Point><coordinates>-2.790374,54.036581,0.000000</coordinates></Point></Placemark>
<Placemark><name>Salt Ayre Pool</name><description></description><styleUrl>#other.png</styleUrl><Point><coordinates>-2.830450,54.055883,0.000000</coordinates></Point></Placemark>
<Placemark><name>Janet Shapleski, Betsy Yuan</name><description>68 Coulston Rd</description><styleUrl>#culture.png</styleUrl><Point><coordinates>-2.788195,54.038011,0.000000</coordinates></Point></Placemark>
<Placemark><name>Catherine Honor, Sarah Harper</name><description>47 Golgotha Rd</description><styleUrl>#culture.png</styleUrl><Point><coordinates>-2.788036,54.038996,0.000000</coordinates></Point></Placemark>
<Placemark><name>Brighton</name><description></description><styleUrl>#other.png</styleUrl><Point><coordinates>-0.122033,50.842732,0.000000</coordinates></Point></Placemark>
<Placemark><name>Lloyds Bank</name><description></description><styleUrl>#bank.png</styleUrl><Point><coordinates>-2.239473,53.480687,0.000000</coordinates></Point></Placemark>
<Placemark><name>Lan Ding</name><description>20 Cumberland view havelock street</description><styleUrl>#culture.png</styleUrl><Point><coordinates>-2.789481,54.039679,0.000000</coordinates></Point></Placemark>
<Placemark><name>Andy Irvine</name><description></description><styleUrl>#culture.png</styleUrl><Point><coordinates>-3.203678,55.941403,0.000000</coordinates></Point></Placemark>
<Placemark><name>Full House Noodle Bar</name><description></description><styleUrl>#food_drink.png</styleUrl><Point><coordinates>-2.800741,54.047423,0.000000</coordinates></Point></Placemark>
<Placemark><name>Cassie Zong</name><description></description><styleUrl>#culture.png</styleUrl><Point><coordinates>-3.183626,55.944682,0.000000</coordinates></Point></Placemark>
<Placemark><name>Blackpool</name><description></description><styleUrl>#other.png</styleUrl><Point><coordinates>-3.054179,53.824204,0.000000</coordinates></Point></Placemark>
<Placemark><name>Asda</name><description></description><styleUrl>#other.png</styleUrl><Point><coordinates>-0.131423,51.634433,0.000000</coordinates></Point></Placemark>
<Placemark><name>Corina&apos;s House</name><description>3 Portland Street</description><styleUrl>#culture.png</styleUrl><Point><coordinates>-2.803202,54.044711,0.000000</coordinates></Point></Placemark>
<Placemark><name>Leong&apos;s Legend</name><description></description><styleUrl>#other.png</styleUrl><Point><coordinates>-0.130353,51.511639,0.000000</coordinates></Point></Placemark>
<Placemark><name>Life Church</name><description></description><styleUrl>#health.png</styleUrl><Point><coordinates>-3.182852,55.945852,0.000000</coordinates></Point></Placemark>
<Placemark><name>Yang Ge</name><description>52 Wellington Rd</description><styleUrl>#culture.png</styleUrl><Point><coordinates>-2.791639,54.036409,0.000000</coordinates></Point></Placemark>
<Placemark><name>Apple Store</name><description></description><styleUrl>#other.png</styleUrl><Point><coordinates>-4.253705,55.861382,0.000000</coordinates></Point></Placemark>
<Placemark><name>Chippy</name><description></description><styleUrl>#other.png</styleUrl><Point><coordinates>-0.180620,54.089700,0.000000</coordinates></Point></Placemark>
<Placemark><name>Cecilia Yin</name><description>11 Spruce Avenue</description><styleUrl>#culture.png</styleUrl><Point><coordinates>-2.800835,54.032095,0.000000</coordinates></Point></Placemark>
<Placemark><name>The Ridge</name><description></description><styleUrl>#other.png</styleUrl><Point><coordinates>-2.787087,54.055353,0.000000</coordinates></Point></Placemark>
<Placemark><name>Grange-over-Sands</name><description></description><styleUrl>#other.png</styleUrl><Point><coordinates>-2.910297,54.192622,0.000000</coordinates></Point></Placemark>
<Placemark><name>2F1 69 Merchiston Crescent</name><description></description><styleUrl>#culture.png</styleUrl><Point><coordinates>-3.215007,55.934713,0.000000</coordinates></Point></Placemark>
<Placemark><name>Pastries with Motasem</name><description></description><styleUrl>#food_drink.png</styleUrl><Point><coordinates>-2.224362,53.455207,0.000000</coordinates></Point></Placemark>
<Placemark><name>Leyland</name><description></description><styleUrl>#other.png</styleUrl><Point><coordinates>-2.687071,53.699408,0.000000</coordinates></Point></Placemark>
<Placemark><name>Starbucks</name><description></description><styleUrl>#food_drink.png</styleUrl><Point><coordinates>-2.800442,54.048667,0.000000</coordinates></Point></Placemark>
<Placemark><name>St Andrews Leyland</name><description></description><styleUrl>#health.png</styleUrl><Point><coordinates>-2.696593,53.688619,0.000000</coordinates></Point></Placemark>
<Placemark><name>Tesco Superstore</name><description></description><styleUrl>#other.png</styleUrl><Point><coordinates>-2.983214,53.403643,0.000000</coordinates></Point></Placemark>
<Placemark><name>Noon Napat</name><description>36 Trafalgar Road LA1 4DA</description><styleUrl>#culture.png</styleUrl><Point><coordinates>-2.791809,54.038029,0.000000</coordinates></Point></Placemark>
<Placemark><name>Chinese Church</name><description></description><styleUrl>#other.png</styleUrl><Point><coordinates>-0.122655,51.516879,0.000000</coordinates></Point></Placemark>
<Placemark><name>Lloyds Bank</name><description></description><styleUrl>#bank.png</styleUrl><Point><coordinates>-3.196707,55.952507,0.000000</coordinates></Point></Placemark>
<Placemark><name>St Andrews</name><description></description><styleUrl>#other.png</styleUrl><Point><coordinates>-2.805362,56.343182,0.000000</coordinates></Point></Placemark>
<Placemark><name>Southgate</name><description></description><styleUrl>#other.png</styleUrl><Point><coordinates>-0.127131,51.633281,0.000000</coordinates></Point></Placemark>
<Placemark><name>Northbound</name><description></description><styleUrl>#car_services.png</styleUrl><Point><coordinates>-2.776839,54.070745,0.000000</coordinates></Point></Placemark>
<Placemark><name>Chinese Supermarket</name><description></description><styleUrl>#food_drink.png</styleUrl><Point><coordinates>-3.184002,55.943873,0.000000</coordinates></Point></Placemark>
<Placemark><name>Scorton Village Shop</name><description>5:20 pm</description><styleUrl>#other.png</styleUrl><Point><coordinates>-2.759387,53.933075,0.000000</coordinates></Point></Placemark>
<Placemark><name>Lucia&apos;s wine bar</name><description></description><styleUrl>#other.png</styleUrl><Point><coordinates>-0.433627,53.843310,0.000000</coordinates></Point></Placemark>
<Placemark><name>Dalton-In-Furness</name><description></description><styleUrl>#other.png</styleUrl><Point><coordinates>-3.177909,54.158532,0.000000</coordinates></Point></Placemark>
<Placemark><name>3 Store</name><description>24 Saint Anns Square</description><styleUrl>#other.png</styleUrl><Point><coordinates>-2.245747,53.482188,0.000000</coordinates></Point></Placemark>
<Placemark><name>Ice cream shop</name><description></description><styleUrl>#other.png</styleUrl><Point><coordinates>-0.182868,54.087011,0.000000</coordinates></Point></Placemark>
<Placemark><name>75 Warrender Park Rd</name><description></description><styleUrl>#residence.png</styleUrl><Point><coordinates>-3.197472,55.938372,0.000000</coordinates></Point></Placemark>
<Placemark><name>Free Wheelers Bike Coop</name><description></description><styleUrl>#car_services.png</styleUrl><Point><coordinates>-2.793998,54.050805,0.000000</coordinates></Point></Placemark>
<Placemark><name>Andy &amp; Elspeth Wood</name><description>23 Yealand Drive</description><styleUrl>#culture.png</styleUrl><Point><coordinates>-2.793476,54.028717,0.000000</coordinates></Point></Placemark>
<Placemark><name>Milton Keynes</name><description></description><styleUrl>#other.png</styleUrl><Point><coordinates>-0.775255,52.034663,0.000000</coordinates></Point></Placemark>
<Placemark><name>Spar</name><description></description><styleUrl>#food_drink.png</styleUrl><Point><coordinates>-2.789555,54.037902,0.000000</coordinates></Point></Placemark>
<Placemark><name>North Berwick</name><description></description><styleUrl>#other.png</styleUrl><Point><coordinates>-2.725089,56.058841,0.000000</coordinates></Point></Placemark>
<Placemark><name>Entwistle Green</name><description>I owe 144 GBP 9:30-18:00</description><styleUrl>#other.png</styleUrl><Point><coordinates>-2.803028,54.048620,0.000000</coordinates></Point></Placemark>
<Placemark><name>Shaodong</name><description>22 Water Street</description><styleUrl>#other.png</styleUrl><Point><coordinates>-2.800573,54.051325,0.000000</coordinates></Point></Placemark>
<Placemark><name>Not Lloyds</name><description></description><styleUrl>#bank.png</styleUrl><Point><coordinates>-2.242435,53.478802,0.000000</coordinates></Point></Placemark>
<Placemark><name>Henry Lo</name><description></description><styleUrl>#other.png</styleUrl><Point><coordinates>-0.086193,51.503096,0.000000</coordinates></Point></Placemark>
<Placemark><name>Carl Fischer</name><description>16 Greenacre Court</description><styleUrl>#culture.png</styleUrl><Point><coordinates>-2.783014,54.026698,0.000000</coordinates></Point></Placemark>
<Placemark><name>Tom Hunter&apos;s Flat 191 Flat 5 Leith Walk</name><description></description><styleUrl>#culture.png</styleUrl><Point><coordinates>-3.174509,55.967298,0.000000</coordinates></Point></Placemark>
<Placemark><name>Forton Services</name><description></description><styleUrl>#other.png</styleUrl><Point><coordinates>-2.758953,53.962799,0.000000</coordinates></Point></Placemark>
<Placemark><name>Stefan Klikovits</name><description>Flat 28, Phase 3, The Tobacco Factory, 2A Naples Street, M4 4DH</description><styleUrl>#culture.png</styleUrl><Point><coordinates>-2.234353,53.488852,0.000000</coordinates></Point></Placemark>
<Placemark><name>Holborn</name><description></description><styleUrl>#other.png</styleUrl><Point><coordinates>-0.120200,51.517629,0.000000</coordinates></Point></Placemark>
<Placemark><name>Huddersfield</name><description></description><styleUrl>#other.png</styleUrl><Point><coordinates>-1.784753,53.647256,0.000000</coordinates></Point></Placemark>
<Placemark><name>Royal Commonwealth Pool</name><description></description><styleUrl>#other.png</styleUrl><Point><coordinates>-3.172742,55.939132,0.000000</coordinates></Point></Placemark>
<Placemark><name>Awgichew Abebe</name><description>47 Bowerham Road</description><styleUrl>#culture.png</styleUrl><Point><coordinates>-2.789701,54.038962,0.000000</coordinates></Point></Placemark>
<Placemark><name>Stansted Airport</name><description></description><styleUrl>#car_services.png</styleUrl><Point><coordinates>0.234990,51.885010,0.000000</coordinates></Point></Placemark>
<Placemark><name>Priory</name><description></description><styleUrl>#health.png</styleUrl><Point><coordinates>-0.202262,54.094566,0.000000</coordinates></Point></Placemark>
<Placemark><name>Lloyds Bank</name><description>MTWF: 9:30-17:00, Th: 9:30-19:00, Sat: 9:00-13:00</description><styleUrl>#bank.png</styleUrl><Point><coordinates>-2.801844,54.048703,0.000000</coordinates></Point></Placemark>
<Placemark><name>ICFT Bubble Tea</name><description>£3.25</description><styleUrl>#food_drink.png</styleUrl><Point><coordinates>-2.241156,53.478454,0.000000</coordinates></Point></Placemark>
<Placemark><name>London Euston</name><description></description><styleUrl>#car_services.png</styleUrl><Point><coordinates>-0.133870,51.528587,0.000000</coordinates></Point></Placemark>
<Placemark><name>Steve Elliott</name><description>20 Bentham Road</description><styleUrl>#culture.png</styleUrl><Point><coordinates>-2.786608,54.026177,0.000000</coordinates></Point></Placemark>
<Placemark><name>Sweet shop</name><description></description><styleUrl>#other.png</styleUrl><Point><coordinates>-0.426559,53.841171,0.000000</coordinates></Point></Placemark>
<Placemark><name>Keith Bowers</name><description>8 Sunnyfield Avenue</description><styleUrl>#culture.png</styleUrl><Point><coordinates>-2.841605,54.075322,0.000000</coordinates></Point></Placemark>
<Placemark><name>Bowness</name><description></description><styleUrl>#other.png</styleUrl><Point><coordinates>-2.922839,54.364474,0.000000</coordinates></Point></Placemark>
<Placemark><name>Silverdale</name><description></description><styleUrl>#other.png</styleUrl><Point><coordinates>-2.825939,54.168143,0.000000</coordinates></Point></Placemark>
<Placemark><name>Costa</name><description>Meet Motasem at 10:00, 124 Market St</description><styleUrl>#food_drink.png</styleUrl><Point><coordinates>-2.239717,53.482371,0.000000</coordinates></Point></Placemark>
<Placemark><name>Three shop</name><description></description><styleUrl>#other.png</styleUrl><Point><coordinates>-0.189663,54.082155,0.000000</coordinates></Point></Placemark>
<Placemark><name>George Square</name><description></description><styleUrl>#other.png</styleUrl><Point><coordinates>-3.188810,55.943769,0.000000</coordinates></Point></Placemark>
<Placemark><name>LBC</name><description>10:30 am, 6:30 pm Sunday</description><styleUrl>#health.png</styleUrl><Point><coordinates>-2.796662,54.047267,0.000000</coordinates></Point></Placemark>
<Placemark><name>Ambleside</name><description></description><styleUrl>#other.png</styleUrl><Point><coordinates>-2.962021,54.429301,0.000000</coordinates></Point></Placemark>
<Placemark><name>All Nations Christian College</name><description></description><styleUrl>#other.png</styleUrl><Point><coordinates>0.001567,51.802918,0.000000</coordinates></Point></Placemark>
<Placemark><name>Stephen&apos;s House</name><description></description><styleUrl>#residence.png</styleUrl><Point><coordinates>-3.196092,55.958685,0.000000</coordinates></Point></Placemark>
<Placemark><name>Apple Store</name><description></description><styleUrl>#other.png</styleUrl><Point><coordinates>-2.240788,53.482821,0.000000</coordinates></Point></Placemark>
<Placemark><name>Chinese Church</name><description>11:30 166A Shaftesbury Avenue, WC2H8JB</description><styleUrl>#other.png</styleUrl><Point><coordinates>-0.127174,51.514787,0.000000</coordinates></Point></Placemark>
<Placemark><name>Lebanese Restaurant</name><description>With Motasem</description><styleUrl>#food_drink.png</styleUrl><Point><coordinates>-2.224617,53.455669,0.000000</coordinates></Point></Placemark>
<Placemark><name>Evangelist Conference</name><description></description><styleUrl>#health.png</styleUrl><Point><coordinates>-2.543986,53.245756,0.000000</coordinates></Point></Placemark>
<Placemark><name>St Tees</name><description>18:15 Sunday</description><styleUrl>#health.png</styleUrl><Point><coordinates>-2.799289,54.046227,0.000000</coordinates></Point></Placemark>
